[{"city":"Tokyo","country":"Japan","lat":"35.6850","lng":"139.7514"},{"city":"New York","country":"United States","lat":"40.6943","lng":"-73.9249"},{"city":"Mexico City","country":"Mexico","lat":"19.4424","lng":"-99.1310"},{"city":"Mumbai","country":"India","lat":"19.0170","lng":"72.8570"},{"city":"São Paulo","country":"Brazil","lat":"-23.5587","lng":"-46.6250"},{"city":"Delhi","country":"India","lat":"28.6700","lng":"77.2300"},{"city":"Shanghai","country":"China","lat":"31.2165","lng":"121.4365"},{"city":"Kolkata","country":"India","lat":"22.4950","lng":"88.3247"},{"city":"Los Angeles","country":"United States","lat":"34.1139","lng":"-118.4068"},{"city":"Dhaka","country":"Bangladesh","lat":"23.7231","lng":"90.4086"},{"city":"Buenos Aires","country":"Argentina","lat":"-34.6025","lng":"-58.3975"},{"city":"Karachi","country":"Pakistan","lat":"24.8700","lng":"66.9900"},{"city":"Cairo","country":"Egypt","lat":"30.0500","lng":"31.2500"},{"city":"Rio de Janeiro","country":"Brazil","lat":"-22.9250","lng":"-43.2250"},{"city":"Ōsaka","country":"Japan","lat":"34.7500","lng":"135.4601"},{"city":"Beijing","country":"China","lat":"39.9289","lng":"116.3883"},{"city":"Manila","country":"Philippines","lat":"14.6042","lng":"120.9822"},{"city":"Moscow","country":"Russia","lat":"55.7522","lng":"37.6155"},{"city":"Istanbul","country":"Turkey","lat":"41.1050","lng":"29.0100"},{"city":"Paris","country":"France","lat":"48.8667","lng":"2.3333"},{"city":"Seoul","country":"Korea, South","lat":"37.5663","lng":"126.9997"},{"city":"Lagos","country":"Nigeria","lat":"6.4433","lng":"3.3915"},{"city":"Jakarta","country":"Indonesia","lat":"-6.1744","lng":"106.8294"},{"city":"Guangzhou","country":"China","lat":"23.1450","lng":"113.3250"},{"city":"Chicago","country":"United States","lat":"41.8373","lng":"-87.6862"},{"city":"London","country":"United Kingdom","lat":"51.5000","lng":"-0.1167"},{"city":"Lima","country":"Peru","lat":"-12.0480","lng":"-77.0501"},{"city":"Tehran","country":"Iran","lat":"35.6719","lng":"51.4243"},{"city":"Kinshasa","country":"Congo (Kinshasa)","lat":"-4.3297","lng":"15.3150"},{"city":"Bogotá","country":"Colombia","lat":"4.5964","lng":"-74.0833"},{"city":"Shenzhen","country":"China","lat":"22.5524","lng":"114.1221"},{"city":"Wuhan","country":"China","lat":"30.5800","lng":"114.2700"},{"city":"Hong Kong","country":"Hong Kong","lat":"22.3050","lng":"114.1850"},{"city":"Tianjin","country":"China","lat":"39.1300","lng":"117.2000"},{"city":"Chennai","country":"India","lat":"13.0900","lng":"80.2800"},{"city":"Taipei","country":"Taiwan","lat":"25.0358","lng":"121.5683"},{"city":"Bengalūru","country":"India","lat":"12.9700","lng":"77.5600"},{"city":"Bangkok","country":"Thailand","lat":"13.7500","lng":"100.5166"},{"city":"Lahore","country":"Pakistan","lat":"31.5600","lng":"74.3500"},{"city":"Chongqing","country":"China","lat":"29.5650","lng":"106.5950"},{"city":"Miami","country":"United States","lat":"25.7839","lng":"-80.2102"},{"city":"Hyderabad","country":"India","lat":"17.4000","lng":"78.4800"},{"city":"Dallas","country":"United States","lat":"32.7936","lng":"-96.7662"},{"city":"Santiago","country":"Chile","lat":"-33.4500","lng":"-70.6670"},{"city":"Philadelphia","country":"United States","lat":"40.0077","lng":"-75.1339"},{"city":"Belo Horizonte","country":"Brazil","lat":"-19.9150","lng":"-43.9150"},{"city":"Madrid","country":"Spain","lat":"40.4000","lng":"-3.6834"},{"city":"Houston","country":"United States","lat":"29.7869","lng":"-95.3905"},{"city":"Ahmadābād","country":"India","lat":"23.0301","lng":"72.5800"},{"city":"Ho Chi Minh City","country":"Vietnam","lat":"10.7800","lng":"106.6950"},{"city":"Washington","country":"United States","lat":"38.9047","lng":"-77.0163"},{"city":"Atlanta","country":"United States","lat":"33.7627","lng":"-84.4225"},{"city":"Toronto","country":"Canada","lat":"43.7000","lng":"-79.4200"},{"city":"Singapore","country":"Singapore","lat":"1.2930","lng":"103.8558"},{"city":"Luanda","country":"Angola","lat":"-8.8383","lng":"13.2344"},{"city":"Baghdad","country":"Iraq","lat":"33.3386","lng":"44.3939"},{"city":"Barcelona","country":"Spain","lat":"41.3833","lng":"2.1834"},{"city":"Hāora","country":"India","lat":"22.5804","lng":"88.3299"},{"city":"Shenyang","country":"China","lat":"41.8050","lng":"123.4500"},{"city":"Khartoum","country":"Sudan","lat":"15.5881","lng":"32.5342"},{"city":"Pune","country":"India","lat":"18.5300","lng":"73.8500"},{"city":"Boston","country":"United States","lat":"42.3188","lng":"-71.0846"},{"city":"Sydney","country":"Australia","lat":"-33.9200","lng":"151.1852"},{"city":"Saint Petersburg","country":"Russia","lat":"59.9390","lng":"30.3160"},{"city":"Chittagong","country":"Bangladesh","lat":"22.3300","lng":"91.8000"},{"city":"Dongguan","country":"China","lat":"23.0489","lng":"113.7447"},{"city":"Riyadh","country":"Saudi Arabia","lat":"24.6408","lng":"46.7727"},{"city":"Hanoi","country":"Vietnam","lat":"21.0333","lng":"105.8500"},{"city":"Guadalajara","country":"Mexico","lat":"20.6700","lng":"-103.3300"},{"city":"Melbourne","country":"Australia","lat":"-37.8200","lng":"144.9750"},{"city":"Alexandria","country":"Egypt","lat":"31.2000","lng":"29.9500"},{"city":"Chengdu","country":"China","lat":"30.6700","lng":"104.0700"},{"city":"Rangoon","country":"Burma","lat":"16.7834","lng":"96.1667"},{"city":"Phoenix","country":"United States","lat":"33.5722","lng":"-112.0891"},{"city":"Xi’an","country":"China","lat":"34.2750","lng":"108.8950"},{"city":"Porto Alegre","country":"Brazil","lat":"-30.0500","lng":"-51.2000"},{"city":"Sūrat","country":"India","lat":"21.2000","lng":"72.8400"},{"city":"Hechi","country":"China","lat":"23.0965","lng":"109.6091"},{"city":"Abidjan","country":"Côte D’Ivoire","lat":"5.3200","lng":"-4.0400"},{"city":"Brasília","country":"Brazil","lat":"-15.7833","lng":"-47.9161"},{"city":"Ankara","country":"Turkey","lat":"39.9272","lng":"32.8644"},{"city":"Monterrey","country":"Mexico","lat":"25.6700","lng":"-100.3300"},{"city":"Yokohama","country":"Japan","lat":"35.3200","lng":"139.5800"},{"city":"Nanjing","country":"China","lat":"32.0500","lng":"118.7800"},{"city":"Montréal","country":"Canada","lat":"45.5000","lng":"-73.5833"},{"city":"Guiyang","country":"China","lat":"26.5800","lng":"106.7200"},{"city":"Recife","country":"Brazil","lat":"-8.0756","lng":"-34.9156"},{"city":"Seattle","country":"United States","lat":"47.6211","lng":"-122.3244"},{"city":"Harbin","country":"China","lat":"45.7500","lng":"126.6500"},{"city":"San Francisco","country":"United States","lat":"37.7562","lng":"-122.4430"},{"city":"Fortaleza","country":"Brazil","lat":"-3.7500","lng":"-38.5800"},{"city":"Zhangzhou","country":"China","lat":"24.5204","lng":"117.6700"},{"city":"Detroit","country":"United States","lat":"42.3834","lng":"-83.1024"},{"city":"Salvador","country":"Brazil","lat":"-12.9700","lng":"-38.4800"},{"city":"Busan","country":"Korea, South","lat":"35.0951","lng":"129.0100"},{"city":"Johannesburg","country":"South Africa","lat":"-26.1700","lng":"28.0300"},{"city":"Berlin","country":"Germany","lat":"52.5218","lng":"13.4015"},{"city":"Algiers","country":"Algeria","lat":"36.7631","lng":"3.0506"},{"city":"Rome","country":"Italy","lat":"41.8960","lng":"12.4833"},{"city":"Pyongyang","country":"Korea, North","lat":"39.0194","lng":"125.7547"},{"city":"Medellín","country":"Colombia","lat":"6.2750","lng":"-75.5750"},{"city":"Kabul","country":"Afghanistan","lat":"34.5167","lng":"69.1833"},{"city":"Athens","country":"Greece","lat":"37.9833","lng":"23.7333"},{"city":"Nagoya","country":"Japan","lat":"35.1550","lng":"136.9150"},{"city":"Cape Town","country":"South Africa","lat":"-33.9200","lng":"18.4350"},{"city":"San Diego","country":"United States","lat":"32.8312","lng":"-117.1225"},{"city":"Changchun","country":"China","lat":"43.8650","lng":"125.3400"},{"city":"Casablanca","country":"Morocco","lat":"33.6000","lng":"-7.6164"},{"city":"Dalian","country":"China","lat":"38.9228","lng":"121.6298"},{"city":"Cawnpore","country":"India","lat":"26.4600","lng":"80.3200"},{"city":"Kano","country":"Nigeria","lat":"12.0000","lng":"8.5200"},{"city":"Tel Aviv-Yafo","country":"Israel","lat":"32.0800","lng":"34.7700"},{"city":"Addis Ababa","country":"Ethiopia","lat":"9.0333","lng":"38.7000"},{"city":"Curitiba","country":"Brazil","lat":"-25.4200","lng":"-49.3200"},{"city":"Zibo","country":"China","lat":"36.8000","lng":"118.0500"},{"city":"Jeddah","country":"Saudi Arabia","lat":"21.5169","lng":"39.2192"},{"city":"Nairobi","country":"Kenya","lat":"-1.2833","lng":"36.8167"},{"city":"Hangzhou","country":"China","lat":"30.2500","lng":"120.1700"},{"city":"Benoni","country":"South Africa","lat":"-26.1496","lng":"28.3299"},{"city":"Caracas","country":"Venezuela","lat":"10.5010","lng":"-66.9170"},{"city":"Milan","country":"Italy","lat":"45.4700","lng":"9.2050"},{"city":"Stuttgart","country":"Germany","lat":"48.7800","lng":"9.2000"},{"city":"Kunming","country":"China","lat":"25.0700","lng":"102.6800"},{"city":"Dar es Salaam","country":"Tanzania","lat":"-6.8000","lng":"39.2683"},{"city":"Minneapolis","country":"United States","lat":"44.9635","lng":"-93.2678"},{"city":"Jaipur","country":"India","lat":"26.9211","lng":"75.8100"},{"city":"Taiyuan","country":"China","lat":"37.8750","lng":"112.5451"},{"city":"Frankfurt","country":"Germany","lat":"50.1000","lng":"8.6750"},{"city":"Qingdao","country":"China","lat":"36.0900","lng":"120.3300"},{"city":"Surabaya","country":"Indonesia","lat":"-7.2492","lng":"112.7508"},{"city":"Lisbon","country":"Portugal","lat":"38.7227","lng":"-9.1449"},{"city":"Tampa","country":"United States","lat":"27.9942","lng":"-82.4451"},{"city":"Jinan","country":"China","lat":"36.6750","lng":"116.9950"},{"city":"Fukuoka","country":"Japan","lat":"33.5950","lng":"130.4100"},{"city":"Campinas","country":"Brazil","lat":"-22.9000","lng":"-47.1000"},{"city":"Denver","country":"United States","lat":"39.7621","lng":"-104.8759"},{"city":"Kaohsiung","country":"Taiwan","lat":"22.6333","lng":"120.2666"},{"city":"Quezon City","country":"Philippines","lat":"14.6504","lng":"121.0300"},{"city":"Katowice","country":"Poland","lat":"50.2604","lng":"19.0200"},{"city":"Aleppo","country":"Syria","lat":"36.2300","lng":"37.1700"},{"city":"Durban","country":"South Africa","lat":"-29.8650","lng":"30.9800"},{"city":"Kyiv","country":"Ukraine","lat":"50.4334","lng":"30.5166"},{"city":"Lucknow","country":"India","lat":"26.8550","lng":"80.9150"},{"city":"Giza","country":"Egypt","lat":"30.0100","lng":"31.1900"},{"city":"Zhengzhou","country":"China","lat":"34.7550","lng":"113.6651"},{"city":"Taichung","country":"Taiwan","lat":"24.1521","lng":"120.6817"},{"city":"Brooklyn","country":"United States","lat":"40.6501","lng":"-73.9496"},{"city":"Ibadan","country":"Nigeria","lat":"7.3800","lng":"3.9300"},{"city":"Faisalabad","country":"Pakistan","lat":"31.4100","lng":"73.1100"},{"city":"Fuzhou","country":"China","lat":"26.0800","lng":"119.3000"},{"city":"Changsha","country":"China","lat":"28.2000","lng":"112.9700"},{"city":"Dakar","country":"Senegal","lat":"14.7158","lng":"-17.4731"},{"city":"İzmir","country":"Turkey","lat":"38.4361","lng":"27.1518"},{"city":"Xiangtan","country":"China","lat":"27.8504","lng":"112.9000"},{"city":"Lanzhou","country":"China","lat":"36.0560","lng":"103.7920"},{"city":"Incheon","country":"Korea, South","lat":"37.4761","lng":"126.6422"},{"city":"Sapporo","country":"Japan","lat":"43.0750","lng":"141.3400"},{"city":"Xiamen","country":"China","lat":"24.4500","lng":"118.0800"},{"city":"Guayaquil","country":"Ecuador","lat":"-2.2200","lng":"-79.9200"},{"city":"George Town","country":"Malaysia","lat":"5.4136","lng":"100.3294"},{"city":"Mashhad","country":"Iran","lat":"36.2700","lng":"59.5700"},{"city":"Damascus","country":"Syria","lat":"33.5000","lng":"36.3000"},{"city":"Daegu","country":"Korea, South","lat":"35.8668","lng":"128.6070"},{"city":"Nāgpur","country":"India","lat":"21.1700","lng":"79.0900"},{"city":"Lianshan","country":"China","lat":"40.7503","lng":"120.8300"},{"city":"Shijiazhuang","country":"China","lat":"38.0500","lng":"114.4800"},{"city":"Tunis","country":"Tunisia","lat":"36.8028","lng":"10.1797"},{"city":"Vienna","country":"Austria","lat":"48.2000","lng":"16.3666"},{"city":"Jilin","country":"China","lat":"43.8500","lng":"126.5500"},{"city":"Omdurman","country":"Sudan","lat":"15.6167","lng":"32.4800"},{"city":"Bandung","country":"Indonesia","lat":"-6.9500","lng":"107.5700"},{"city":"Bekasi","country":"Indonesia","lat":"-6.2173","lng":"106.9723"},{"city":"Mannheim","country":"Germany","lat":"49.5004","lng":"8.4700"},{"city":"Nanchang","country":"China","lat":"28.6800","lng":"115.8800"},{"city":"Wenzhou","country":"China","lat":"28.0200","lng":"120.6501"},{"city":"Queens","country":"United States","lat":"40.7498","lng":"-73.7976"},{"city":"Vancouver","country":"Canada","lat":"49.2734","lng":"-123.1216"},{"city":"Birmingham","country":"United Kingdom","lat":"52.4750","lng":"-1.9200"},{"city":"Cali","country":"Colombia","lat":"3.4000","lng":"-76.5000"},{"city":"Naples","country":"Italy","lat":"40.8400","lng":"14.2450"},{"city":"Sendai","country":"Japan","lat":"38.2871","lng":"141.0217"},{"city":"Manchester","country":"United Kingdom","lat":"53.5004","lng":"-2.2480"},{"city":"Puebla","country":"Mexico","lat":"19.0500","lng":"-98.2000"},{"city":"Tripoli","country":"Libya","lat":"32.8925","lng":"13.1800"},{"city":"Tashkent","country":"Uzbekistan","lat":"41.3117","lng":"69.2949"},{"city":"Havana","country":"Cuba","lat":"23.1320","lng":"-82.3642"},{"city":"Gaoping","country":"China","lat":"30.7804","lng":"106.1300"},{"city":"Baltimore","country":"United States","lat":"39.3051","lng":"-76.6144"},{"city":"Nanning","country":"China","lat":"22.8200","lng":"108.3200"},{"city":"Belém","country":"Brazil","lat":"-1.4500","lng":"-48.4800"},{"city":"Patna","country":"India","lat":"25.6250","lng":"85.1300"},{"city":"Santo Domingo","country":"Dominican Republic","lat":"18.4701","lng":"-69.9001"},{"city":"Ürümqi","country":"China","lat":"43.8050","lng":"87.5750"},{"city":"Zaozhuang","country":"China","lat":"34.8800","lng":"117.5700"},{"city":"Baku","country":"Azerbaijan","lat":"40.3953","lng":"49.8622"},{"city":"Accra","country":"Ghana","lat":"5.5500","lng":"-0.2167"},{"city":"Yantai","country":"China","lat":"37.5304","lng":"121.4000"},{"city":"Medan","country":"Indonesia","lat":"3.5800","lng":"98.6500"},{"city":"Santa Cruz","country":"Bolivia","lat":"-17.7539","lng":"-63.2260"},{"city":"Tongshan","country":"China","lat":"34.2800","lng":"117.1800"},{"city":"Riverside","country":"United States","lat":"33.9381","lng":"-117.3948"},{"city":"Linyi","country":"China","lat":"35.0800","lng":"118.3300"},{"city":"St. Louis","country":"United States","lat":"38.6358","lng":"-90.2451"},{"city":"Las Vegas","country":"United States","lat":"36.2333","lng":"-115.2654"},{"city":"Maracaibo","country":"Venezuela","lat":"10.7300","lng":"-71.6600"},{"city":"Kuwait City","country":"Kuwait","lat":"29.3697","lng":"47.9783"},{"city":"Ad Dammām","country":"Saudi Arabia","lat":"26.4282","lng":"50.0997"},{"city":"Portland","country":"United States","lat":"45.5371","lng":"-122.6500"},{"city":"Haikou","country":"China","lat":"20.0500","lng":"110.3200"},{"city":"Hiroshima","country":"Japan","lat":"34.3878","lng":"132.4429"},{"city":"Baotou","country":"China","lat":"40.6522","lng":"109.8220"},{"city":"Hefei","country":"China","lat":"31.8500","lng":"117.2800"},{"city":"Indore","country":"India","lat":"22.7151","lng":"75.8650"},{"city":"Goiânia","country":"Brazil","lat":"-16.7200","lng":"-49.3000"},{"city":"Sanaa","country":"Yemen","lat":"15.3547","lng":"44.2066"},{"city":"San Antonio","country":"United States","lat":"29.4658","lng":"-98.5254"},{"city":"Port-au-Prince","country":"Haiti","lat":"18.5410","lng":"-72.3360"},{"city":"Haiphong","country":"Vietnam","lat":"20.8300","lng":"106.6801"},{"city":"Suzhou","country":"China","lat":"33.6361","lng":"116.9789"},{"city":"Nanyang","country":"China","lat":"33.0004","lng":"112.5300"},{"city":"Bucharest","country":"Romania","lat":"44.4334","lng":"26.0999"},{"city":"Ningbo","country":"China","lat":"29.8800","lng":"121.5500"},{"city":"Douala","country":"Cameroon","lat":"4.0604","lng":"9.7100"},{"city":"Tangshan","country":"China","lat":"39.6243","lng":"118.1944"},{"city":"Tainan","country":"Taiwan","lat":"23.0000","lng":"120.2000"},{"city":"Xiping","country":"China","lat":"40.0800","lng":"113.3000"},{"city":"Asunción","country":"Paraguay","lat":"-25.2964","lng":"-57.6415"},{"city":"Saidu Sharif","country":"Pakistan","lat":"34.7500","lng":"72.3500"},{"city":"Brisbane","country":"Australia","lat":"-27.4550","lng":"153.0351"},{"city":"Rawalpindi","country":"Pakistan","lat":"33.6000","lng":"73.0400"},{"city":"Sacramento","country":"United States","lat":"38.5667","lng":"-121.4683"},{"city":"Beirut","country":"Lebanon","lat":"33.8720","lng":"35.5097"},{"city":"San Jose","country":"United States","lat":"37.3021","lng":"-121.8489"},{"city":"Minsk","country":"Belarus","lat":"53.9000","lng":"27.5666"},{"city":"Kyōto","country":"Japan","lat":"35.0300","lng":"135.7500"},{"city":"Barranquilla","country":"Colombia","lat":"10.9600","lng":"-74.8000"},{"city":"Orlando","country":"United States","lat":"28.4772","lng":"-81.3369"},{"city":"Shuyangzha","country":"China","lat":"34.1299","lng":"118.7734"},{"city":"Valencia","country":"Venezuela","lat":"10.2300","lng":"-67.9800"},{"city":"Hamburg","country":"Germany","lat":"53.5500","lng":"10.0000"},{"city":"Vadodara","country":"India","lat":"22.3100","lng":"73.1800"},{"city":"Manaus","country":"Brazil","lat":"-3.1000","lng":"-60.0000"},{"city":"Shangqiu","country":"China","lat":"34.4504","lng":"115.6500"},{"city":"Wuxi","country":"China","lat":"31.5800","lng":"120.3000"},{"city":"Palembang","country":"Indonesia","lat":"-2.9800","lng":"104.7500"},{"city":"Brussels","country":"Belgium","lat":"50.8333","lng":"4.3333"},{"city":"Essen","country":"Germany","lat":"51.4500","lng":"7.0166"},{"city":"Cleveland","country":"United States","lat":"41.4767","lng":"-81.6805"},{"city":"Bhopal","country":"India","lat":"23.2500","lng":"77.4100"},{"city":"Hohhot","country":"China","lat":"40.8200","lng":"111.6600"},{"city":"Pittsburgh","country":"United States","lat":"40.4396","lng":"-79.9763"},{"city":"Luoyang","country":"China","lat":"34.6800","lng":"112.4701"},{"city":"Santos","country":"Brazil","lat":"-23.9537","lng":"-46.3329"},{"city":"Jingling","country":"China","lat":"30.6501","lng":"113.1600"},{"city":"Warsaw","country":"Poland","lat":"52.2500","lng":"21.0000"},{"city":"Rabat","country":"Morocco","lat":"34.0253","lng":"-6.8361"},{"city":"Vitória","country":"Brazil","lat":"-20.3240","lng":"-40.3660"},{"city":"Quito","country":"Ecuador","lat":"-0.2150","lng":"-78.5001"},{"city":"Antananarivo","country":"Madagascar","lat":"-18.9166","lng":"47.5166"},{"city":"Coimbatore","country":"India","lat":"11.0000","lng":"76.9500"},{"city":"Daqing","country":"China","lat":"46.5800","lng":"125.0000"},{"city":"Lu’an","country":"China","lat":"31.7503","lng":"116.4800"},{"city":"Sanzhou","country":"China","lat":"30.8200","lng":"108.4000"},{"city":"Budapest","country":"Hungary","lat":"47.5000","lng":"19.0833"},{"city":"Turin","country":"Italy","lat":"45.0704","lng":"7.6700"},{"city":"Suzhou","country":"China","lat":"31.3005","lng":"120.6200"},{"city":"Ludhiāna","country":"India","lat":"30.9278","lng":"75.8723"},{"city":"Cincinnati","country":"United States","lat":"39.1412","lng":"-84.5060"},{"city":"Kumasi","country":"Ghana","lat":"6.6900","lng":"-1.6300"},{"city":"Manhattan","country":"United States","lat":"40.7834","lng":"-73.9662"},{"city":"Qiqihar","country":"China","lat":"47.3450","lng":"123.9900"},{"city":"Anshan","country":"China","lat":"41.1150","lng":"122.9400"},{"city":"Austin","country":"United States","lat":"30.3006","lng":"-97.7517"},{"city":"Zhongli","country":"Taiwan","lat":"24.9650","lng":"121.2168"},{"city":"Handan","country":"China","lat":"36.5800","lng":"114.4800"},{"city":"Tai’an","country":"China","lat":"36.2000","lng":"117.1201"},{"city":"Eşfahān","country":"Iran","lat":"32.7000","lng":"51.7000"},{"city":"Kansas City","country":"United States","lat":"39.1239","lng":"-94.5541"},{"city":"Yaoundé","country":"Cameroon","lat":"3.8667","lng":"11.5167"},{"city":"Shantou","country":"China","lat":"23.3700","lng":"116.6700"},{"city":"Āgra","country":"India","lat":"27.1704","lng":"78.0150"},{"city":"Zhanjiang","country":"China","lat":"21.2000","lng":"110.3800"},{"city":"La Paz","country":"Bolivia","lat":"-16.4980","lng":"-68.1500"},{"city":"Kalyān","country":"India","lat":"19.2502","lng":"73.1602"},{"city":"Abuja","country":"Nigeria","lat":"9.0833","lng":"7.5333"},{"city":"Harare","country":"Zimbabwe","lat":"-17.8178","lng":"31.0447"},{"city":"Indianapolis","country":"United States","lat":"39.7771","lng":"-86.1458"},{"city":"Xiantao","country":"China","lat":"30.3704","lng":"113.4400"},{"city":"Khulna","country":"Bangladesh","lat":"22.8400","lng":"89.5600"},{"city":"Weifang","country":"China","lat":"36.7204","lng":"119.1001"},{"city":"Tijuana","country":"Mexico","lat":"32.5000","lng":"-117.0800"},{"city":"Santiago","country":"Dominican Republic","lat":"19.5000","lng":"-70.6700"},{"city":"Xinyang","country":"China","lat":"32.1304","lng":"114.0700"},{"city":"Luzhou","country":"China","lat":"28.8800","lng":"105.3800"},{"city":"Perth","country":"Australia","lat":"-31.9550","lng":"115.8400"},{"city":"Toluca","country":"Mexico","lat":"19.3304","lng":"-99.6700"},{"city":"Vishākhapatnam","country":"India","lat":"17.7300","lng":"83.3050"},{"city":"Leeds","country":"United Kingdom","lat":"53.8300","lng":"-1.5800"},{"city":"Kōbe","country":"Japan","lat":"34.6800","lng":"135.1700"},{"city":"Columbus","country":"United States","lat":"39.9860","lng":"-82.9851"},{"city":"Multan","country":"Pakistan","lat":"30.2000","lng":"71.4550"},{"city":"Kochi","country":"India","lat":"10.0150","lng":"76.2239"},{"city":"Montevideo","country":"Uruguay","lat":"-34.8580","lng":"-56.1711"},{"city":"Gujranwala","country":"Pakistan","lat":"32.1604","lng":"74.1850"},{"city":"Niterói","country":"Brazil","lat":"-22.9000","lng":"-43.1000"},{"city":"Ganzhou","country":"China","lat":"25.9200","lng":"114.9500"},{"city":"Florence","country":"Italy","lat":"43.7800","lng":"11.2500"},{"city":"Liuzhou","country":"China","lat":"24.2800","lng":"109.2500"},{"city":"Bamako","country":"Mali","lat":"12.6500","lng":"-8.0000"},{"city":"Conakry","country":"Guinea","lat":"9.5315","lng":"-13.6802"},{"city":"Bursa","country":"Turkey","lat":"40.2000","lng":"29.0700"},{"city":"León de los Aldama","country":"Mexico","lat":"21.1500","lng":"-101.7000"},{"city":"Virginia Beach","country":"United States","lat":"36.7335","lng":"-76.0435"},{"city":"Nāsik","country":"India","lat":"20.0004","lng":"73.7800"},{"city":"Fushun","country":"China","lat":"41.8654","lng":"123.8700"},{"city":"Changde","country":"China","lat":"29.0300","lng":"111.6800"},{"city":"Daejeon","country":"Korea, South","lat":"36.3355","lng":"127.4250"},{"city":"Charlotte","country":"United States","lat":"35.2079","lng":"-80.8304"},{"city":"Phnom Penh","country":"Cambodia","lat":"11.5500","lng":"104.9166"},{"city":"Neijiang","country":"China","lat":"29.5804","lng":"105.0500"},{"city":"Quanzhou","country":"China","lat":"24.9000","lng":"118.5800"},{"city":"Kharkiv","country":"Ukraine","lat":"50.0000","lng":"36.2500"},{"city":"Hyderabad City","country":"Pakistan","lat":"25.3800","lng":"68.3750"},{"city":"Bronx","country":"United States","lat":"40.8501","lng":"-73.8662"},{"city":"Lomé","country":"Togo","lat":"6.1319","lng":"1.2228"},{"city":"Córdoba","country":"Argentina","lat":"-31.4000","lng":"-64.1823"},{"city":"Huainan","country":"China","lat":"32.6300","lng":"116.9800"},{"city":"Doha","country":"Qatar","lat":"25.2866","lng":"51.5330"},{"city":"Kuala Lumpur","country":"Malaysia","lat":"3.1667","lng":"101.7000"},{"city":"Maputo","country":"Mozambique","lat":"-25.9553","lng":"32.5892"},{"city":"Kaduna","country":"Nigeria","lat":"10.5200","lng":"7.4400"},{"city":"Gwangju","country":"Korea, South","lat":"35.1710","lng":"126.9104"},{"city":"Kawanakajima","country":"Japan","lat":"35.5300","lng":"139.7050"},{"city":"San Salvador","country":"El Salvador","lat":"13.7100","lng":"-89.2030"},{"city":"Suining","country":"China","lat":"30.5333","lng":"105.5333"},{"city":"Lyon","country":"France","lat":"45.7700","lng":"4.8300"},{"city":"Karaj","country":"Iran","lat":"35.8004","lng":"50.9700"},{"city":"Kampala","country":"Uganda","lat":"0.3167","lng":"32.5833"},{"city":"Tabrīz","country":"Iran","lat":"38.0863","lng":"46.3012"},{"city":"The Hague","country":"Netherlands","lat":"52.0800","lng":"4.2700"},{"city":"Davao","country":"Philippines","lat":"7.1100","lng":"125.6300"},{"city":"Marseille","country":"France","lat":"43.2900","lng":"5.3750"},{"city":"Meerut","country":"India","lat":"29.0004","lng":"77.7000"},{"city":"Mianyang","country":"China","lat":"31.4700","lng":"104.7700"},{"city":"Semarang","country":"Indonesia","lat":"-6.9666","lng":"110.4200"},{"city":"Farīdābād","country":"India","lat":"28.4333","lng":"77.3167"},{"city":"Novosibirsk","country":"Russia","lat":"55.0300","lng":"82.9600"},{"city":"Mecca","country":"Saudi Arabia","lat":"21.4300","lng":"39.8200"},{"city":"Dubai","country":"United Arab Emirates","lat":"25.2300","lng":"55.2800"},{"city":"Milwaukee","country":"United States","lat":"43.0642","lng":"-87.9673"},{"city":"Auckland","country":"New Zealand","lat":"-36.8481","lng":"174.7630"},{"city":"Ma’anshan","country":"China","lat":"31.7304","lng":"118.4800"},{"city":"Brazzaville","country":"Congo (Brazzaville)","lat":"-4.2592","lng":"15.2847"},{"city":"Yiyang","country":"China","lat":"28.6004","lng":"112.3300"},{"city":"Vārānasi","country":"India","lat":"25.3300","lng":"83.0000"},{"city":"Lubumbashi","country":"Congo (Kinshasa)","lat":"-11.6800","lng":"27.4800"},{"city":"Juárez","country":"Mexico","lat":"31.6904","lng":"-106.4900"},{"city":"Ghāziābād","country":"India","lat":"28.6604","lng":"77.4084"},{"city":"Pretoria","country":"South Africa","lat":"-25.7069","lng":"28.2294"},{"city":"Heze","country":"China","lat":"35.2300","lng":"115.4500"},{"city":"Porto","country":"Portugal","lat":"41.1500","lng":"-8.6200"},{"city":"Āsansol","country":"India","lat":"23.6833","lng":"86.9833"},{"city":"Lusaka","country":"Zambia","lat":"-15.4166","lng":"28.2833"},{"city":"Changzhou","country":"China","lat":"31.7800","lng":"119.9700"},{"city":"Mosul","country":"Iraq","lat":"36.3450","lng":"43.1450"},{"city":"Yekaterinburg","country":"Russia","lat":"56.8500","lng":"60.6000"},{"city":"Peshawar","country":"Pakistan","lat":"34.0050","lng":"71.5350"},{"city":"Mandalay","country":"Burma","lat":"21.9700","lng":"96.0850"},{"city":"Jamshedpur","country":"India","lat":"22.7875","lng":"86.1975"},{"city":"Mbuji-Mayi","country":"Congo (Kinshasa)","lat":"-6.1500","lng":"23.6000"},{"city":"Madura","country":"India","lat":"9.9200","lng":"78.1200"},{"city":"Adana","country":"Turkey","lat":"36.9950","lng":"35.3200"},{"city":"Sheffield","country":"United Kingdom","lat":"53.3667","lng":"-1.5000"},{"city":"Jabalpur","country":"India","lat":"23.1751","lng":"79.9551"},{"city":"San José","country":"Costa Rica","lat":"9.9350","lng":"-84.0841"},{"city":"Panama City","country":"Panama","lat":"8.9680","lng":"-79.5330"},{"city":"Nizhniy Novgorod","country":"Russia","lat":"56.3330","lng":"44.0001"},{"city":"Chifeng","country":"China","lat":"42.2700","lng":"118.9500"},{"city":"Duisburg","country":"Germany","lat":"51.4300","lng":"6.7500"},{"city":"Munich","country":"Germany","lat":"48.1299","lng":"11.5750"},{"city":"Huaiyin","country":"China","lat":"33.5800","lng":"119.0300"},{"city":"Stockholm","country":"Sweden","lat":"59.3508","lng":"18.0973"},{"city":"Makassar","country":"Indonesia","lat":"-5.1400","lng":"119.4320"},{"city":"Rājkot","country":"India","lat":"22.3100","lng":"70.8000"},{"city":"Dhanbād","country":"India","lat":"23.8004","lng":"86.4200"},{"city":"Mudanjiang","country":"China","lat":"44.5750","lng":"129.5900"},{"city":"Geneva","country":"Switzerland","lat":"46.2100","lng":"6.1400"},{"city":"Shīrāz","country":"Iran","lat":"29.6300","lng":"52.5700"},{"city":"Huzhou","country":"China","lat":"30.8704","lng":"120.1000"},{"city":"Beidao","country":"China","lat":"34.6000","lng":"105.9200"},{"city":"Shuangshui","country":"China","lat":"26.5944","lng":"104.8333"},{"city":"Düsseldorf","country":"Germany","lat":"51.2204","lng":"6.7800"},{"city":"Gaozhou","country":"China","lat":"21.9204","lng":"110.8700"},{"city":"Sevilla","country":"Spain","lat":"37.4050","lng":"-5.9800"},{"city":"Amritsar","country":"India","lat":"31.6400","lng":"74.8700"},{"city":"Vila Velha","country":"Brazil","lat":"-20.3676","lng":"-40.3180"},{"city":"Vila Velha","country":"Brazil","lat":"3.2167","lng":"-51.2167"},{"city":"Almaty","country":"Kazakhstan","lat":"43.3250","lng":"76.9150"},{"city":"Providence","country":"United States","lat":"41.8230","lng":"-71.4187"},{"city":"Warangal","country":"India","lat":"18.0100","lng":"79.5800"},{"city":"Rosario","country":"Argentina","lat":"-32.9511","lng":"-60.6663"},{"city":"Allahābād","country":"India","lat":"25.4550","lng":"81.8400"},{"city":"Benin City","country":"Nigeria","lat":"6.3405","lng":"5.6200"},{"city":"Jining","country":"China","lat":"35.4004","lng":"116.5500"},{"city":"Maceió","country":"Brazil","lat":"-9.6200","lng":"-35.7300"},{"city":"Sofia","country":"Bulgaria","lat":"42.6833","lng":"23.3167"},{"city":"Abbottabad","country":"Pakistan","lat":"34.1495","lng":"73.1995"},{"city":"Benghazi","country":"Libya","lat":"32.1167","lng":"20.0667"},{"city":"Cilacap","country":"Indonesia","lat":"-7.7188","lng":"109.0154"},{"city":"Prague","country":"Czechia","lat":"50.0833","lng":"14.4660"},{"city":"Glasgow","country":"United Kingdom","lat":"55.8744","lng":"-4.2507"},{"city":"Leshan","country":"China","lat":"29.5671","lng":"103.7333"},{"city":"Jacksonville","country":"United States","lat":"30.3322","lng":"-81.6749"},{"city":"Ouagadougou","country":"Burkina Faso","lat":"12.3703","lng":"-1.5247"},{"city":"Ottawa","country":"Canada","lat":"45.4167","lng":"-75.7000"},{"city":"Adelaide","country":"Australia","lat":"-34.9350","lng":"138.6000"},{"city":"Shangrao","country":"China","lat":"28.4704","lng":"117.9700"},{"city":"Torreón","country":"Mexico","lat":"25.5701","lng":"-103.4200"},{"city":"Srīnagar","country":"India","lat":"34.1000","lng":"74.8150"},{"city":"Bezwāda","country":"India","lat":"16.5200","lng":"80.6300"},{"city":"Samara","country":"Russia","lat":"53.1950","lng":"50.1513"},{"city":"Omsk","country":"Russia","lat":"54.9900","lng":"73.4000"},{"city":"Newcastle","country":"Australia","lat":"-32.8453","lng":"151.8150"},{"city":"Yulin","country":"China","lat":"22.6300","lng":"110.1500"},{"city":"Namp’o","country":"Korea, North","lat":"38.7669","lng":"125.4524"},{"city":"Xianyang","country":"China","lat":"34.3456","lng":"108.7147"},{"city":"Cagayan de Oro","country":"Philippines","lat":"8.4508","lng":"124.6853"},{"city":"Cần Thơ","country":"Vietnam","lat":"10.0500","lng":"105.7700"},{"city":"Barquisimeto","country":"Venezuela","lat":"10.0500","lng":"-69.3000"},{"city":"Helsinki","country":"Finland","lat":"60.1756","lng":"24.9341"},{"city":"Kazan’","country":"Russia","lat":"55.7499","lng":"49.1263"},{"city":"Aurangābād","country":"India","lat":"19.8957","lng":"75.3203"},{"city":"Calgary","country":"Canada","lat":"51.0830","lng":"-114.0800"},{"city":"Ciudad Nezahualcóyotl","country":"Mexico","lat":"19.4100","lng":"-99.0300"},{"city":"Zürich","country":"Switzerland","lat":"47.3800","lng":"8.5500"},{"city":"Baoding","country":"China","lat":"38.8704","lng":"115.4800"},{"city":"Zigong","country":"China","lat":"29.4000","lng":"104.7800"},{"city":"Sharjah","country":"United Arab Emirates","lat":"25.3714","lng":"55.4065"},{"city":"Yerevan","country":"Armenia","lat":"40.1812","lng":"44.5136"},{"city":"Mogadishu","country":"Somalia","lat":"2.0667","lng":"45.3667"},{"city":"Tbilisi","country":"Georgia","lat":"41.7250","lng":"44.7908"},{"city":"Ankang","country":"China","lat":"32.6800","lng":"109.0200"},{"city":"Huambo","country":"Angola","lat":"-12.7500","lng":"15.7600"},{"city":"Ikare","country":"Nigeria","lat":"7.5304","lng":"5.7600"},{"city":"Belgrade","country":"Serbia","lat":"44.8186","lng":"20.4680"},{"city":"Salt Lake City","country":"United States","lat":"40.7774","lng":"-111.9300"},{"city":"Bhilai","country":"India","lat":"21.2167","lng":"81.4333"},{"city":"Jinhua","country":"China","lat":"29.1200","lng":"119.6500"},{"city":"Chelyabinsk","country":"Russia","lat":"55.1550","lng":"61.4387"},{"city":"Natal","country":"Brazil","lat":"-5.7800","lng":"-35.2400"},{"city":"Dushanbe","country":"Tajikistan","lat":"38.5600","lng":"68.7739"},{"city":"Copenhagen","country":"Denmark","lat":"55.6786","lng":"12.5635"},{"city":"Changwon","country":"Korea, South","lat":"35.2191","lng":"128.5836"},{"city":"Zhuzhou","country":"China","lat":"27.8300","lng":"113.1500"},{"city":"Suwon","country":"Korea, South","lat":"37.2578","lng":"127.0109"},{"city":"Nashville","country":"United States","lat":"36.1715","lng":"-86.7843"},{"city":"Vereeniging","country":"South Africa","lat":"-26.6496","lng":"27.9600"},{"city":"Xiangyang","country":"China","lat":"32.0200","lng":"112.1300"},{"city":"Memphis","country":"United States","lat":"35.1046","lng":"-89.9773"},{"city":"Ulsan","country":"Korea, South","lat":"35.5467","lng":"129.3170"},{"city":"Amman","country":"Jordan","lat":"31.9500","lng":"35.9333"},{"city":"Mizhou","country":"China","lat":"35.9900","lng":"119.3801"},{"city":"Richmond","country":"United States","lat":"37.5295","lng":"-77.4756"},{"city":"Dublin","country":"Ireland","lat":"53.3331","lng":"-6.2489"},{"city":"Edmonton","country":"Canada","lat":"53.5500","lng":"-113.5000"},{"city":"Solāpur","country":"India","lat":"17.6704","lng":"75.9000"},{"city":"Rostov-na-Donu","country":"Russia","lat":"47.2346","lng":"39.7127"},{"city":"Dnipro","country":"Ukraine","lat":"48.4800","lng":"35.0000"},{"city":"Xining","country":"China","lat":"36.6200","lng":"101.7700"},{"city":"Zhangjiakou","country":"China","lat":"40.8300","lng":"114.9300"},{"city":"Lille","country":"France","lat":"50.6500","lng":"3.0800"},{"city":"Ranchi","country":"India","lat":"23.3700","lng":"85.3300"},{"city":"Gaziantep","country":"Turkey","lat":"37.0750","lng":"37.3850"},{"city":"Monrovia","country":"Liberia","lat":"6.3106","lng":"-10.8048"},{"city":"São Luís","country":"Brazil","lat":"-2.5160","lng":"-44.2660"},{"city":"Amsterdam","country":"Netherlands","lat":"52.3500","lng":"4.9166"},{"city":"Jerusalem","country":"Israel","lat":"31.7784","lng":"35.2066"},{"city":"New Orleans","country":"United States","lat":"30.0687","lng":"-89.9288"},{"city":"Guatemala City","country":"Guatemala","lat":"14.6211","lng":"-90.5270"},{"city":"Zhuhai","country":"China","lat":"22.2769","lng":"113.5678"},{"city":"Florianópolis","country":"Brazil","lat":"-27.5800","lng":"-48.5200"},{"city":"Port Elizabeth","country":"South Africa","lat":"-33.9700","lng":"25.6000"},{"city":"Jiamusi","country":"China","lat":"46.8300","lng":"130.3500"},{"city":"Port Harcourt","country":"Nigeria","lat":"4.8100","lng":"7.0100"},{"city":"Raleigh","country":"United States","lat":"35.8324","lng":"-78.6438"},{"city":"Ufa","country":"Russia","lat":"54.7900","lng":"56.0400"},{"city":"Hengyang","country":"China","lat":"26.8800","lng":"112.5900"},{"city":"Benxi","country":"China","lat":"41.3304","lng":"123.7500"},{"city":"Louisville","country":"United States","lat":"38.1663","lng":"-85.6485"},{"city":"Haifa","country":"Israel","lat":"32.8204","lng":"34.9800"},{"city":"Medina","country":"Saudi Arabia","lat":"24.5000","lng":"39.5800"},{"city":"Bucaramanga","country":"Colombia","lat":"7.1301","lng":"-73.1259"},{"city":"Maracay","country":"Venezuela","lat":"10.2469","lng":"-67.5958"},{"city":"Rotterdam","country":"Netherlands","lat":"51.9200","lng":"4.4800"},{"city":"Homs","country":"Syria","lat":"34.7300","lng":"36.7200"},{"city":"Cologne","country":"Germany","lat":"50.9300","lng":"6.9500"},{"city":"Qinhuangdao","country":"China","lat":"39.9304","lng":"119.6200"},{"city":"Fès","country":"Morocco","lat":"34.0546","lng":"-5.0004"},{"city":"N’Djamena","country":"Chad","lat":"12.1131","lng":"15.0491"},{"city":"Tegucigalpa","country":"Honduras","lat":"14.1020","lng":"-87.2175"},{"city":"Kingston","country":"Jamaica","lat":"17.9771","lng":"-76.7674"},{"city":"Nay Pyi Taw","country":"Burma","lat":"19.7666","lng":"96.1186"},{"city":"Djibouti","country":"Djibouti","lat":"11.5950","lng":"43.1480"},{"city":"Managua","country":"Nicaragua","lat":"12.1530","lng":"-86.2685"},{"city":"Niamey","country":"Niger","lat":"13.5167","lng":"2.1167"},{"city":"Tirana","country":"Albania","lat":"41.3275","lng":"19.8189"},{"city":"Kathmandu","country":"Nepal","lat":"27.7167","lng":"85.3166"},{"city":"Ulaanbaatar","country":"Mongolia","lat":"47.9167","lng":"106.9166"},{"city":"Kigali","country":"Rwanda","lat":"-1.9536","lng":"30.0605"},{"city":"Bishkek","country":"Kyrgyzstan","lat":"42.8731","lng":"74.5852"},{"city":"Oslo","country":"Norway","lat":"59.9167","lng":"10.7500"},{"city":"Bangui","country":"Central African Republic","lat":"4.3666","lng":"18.5583"},{"city":"Freetown","country":"Sierra Leone","lat":"8.4700","lng":"-13.2342"},{"city":"Islamabad","country":"Pakistan","lat":"33.7000","lng":"73.1666"},{"city":"Cotonou","country":"Benin","lat":"6.4000","lng":"2.5200"},{"city":"Vientiane","country":"Laos","lat":"17.9667","lng":"102.6000"},{"city":"Riga","country":"Latvia","lat":"56.9500","lng":"24.1000"},{"city":"Nouakchott","country":"Mauritania","lat":"18.0864","lng":"-15.9753"},{"city":"Muscat","country":"Oman","lat":"23.6133","lng":"58.5933"},{"city":"Ashgabat","country":"Turkmenistan","lat":"37.9500","lng":"58.3833"},{"city":"Zagreb","country":"Croatia","lat":"45.8000","lng":"16.0000"},{"city":"Sarajevo","country":"Bosnia And Herzegovina","lat":"43.8500","lng":"18.3830"},{"city":"Chisinau","country":"Moldova","lat":"47.0050","lng":"28.8577"},{"city":"Lilongwe","country":"Malawi","lat":"-13.9833","lng":"33.7833"},{"city":"Asmara","country":"Eritrea","lat":"15.3333","lng":"38.9333"},{"city":"Abu Dhabi","country":"United Arab Emirates","lat":"24.4667","lng":"54.3666"},{"city":"Port Louis","country":"Mauritius","lat":"-20.1666","lng":"57.5000"},{"city":"Libreville","country":"Gabon","lat":"0.3854","lng":"9.4580"},{"city":"Manama","country":"Bahrain","lat":"26.2361","lng":"50.5831"},{"city":"Vilnius","country":"Lithuania","lat":"54.6834","lng":"25.3166"},{"city":"Skopje","country":"Macedonia","lat":"42.0000","lng":"21.4335"},{"city":"Bloemfontein","country":"South Africa","lat":"-29.1200","lng":"26.2299"},{"city":"Bratislava","country":"Slovakia","lat":"48.1500","lng":"17.1170"},{"city":"Bissau","country":"Guinea-Bissau","lat":"11.8650","lng":"-15.5984"},{"city":"Tallinn","country":"Estonia","lat":"59.4339","lng":"24.7280"},{"city":"Wellington","country":"New Zealand","lat":"-41.3000","lng":"174.7833"},{"city":"Valletta","country":"Malta","lat":"35.8997","lng":"14.5147"},{"city":"Maseru","country":"Lesotho","lat":"-29.3167","lng":"27.4833"},{"city":"Nur-Sultan","country":"Kazakhstan","lat":"51.1811","lng":"71.4278"},{"city":"Bujumbura","country":"Burundi","lat":"-3.3761","lng":"29.3600"},{"city":"Canberra","country":"Australia","lat":"-35.2830","lng":"149.1290"},{"city":"New Delhi","country":"India","lat":"28.6000","lng":"77.2000"},{"city":"Ljubljana","country":"Slovenia","lat":"46.0553","lng":"14.5150"},{"city":"Porto-Novo","country":"Benin","lat":"6.4833","lng":"2.6166"},{"city":"Bandar Seri Begawan","country":"Brunei","lat":"4.8833","lng":"114.9333"},{"city":"Port of Spain","country":"Trinidad And Tobago","lat":"10.6520","lng":"-61.5170"},{"city":"Port Moresby","country":"Papua New Guinea","lat":"-9.4647","lng":"147.1925"},{"city":"Bern","country":"Switzerland","lat":"46.9167","lng":"7.4670"},{"city":"Windhoek","country":"Namibia","lat":"-22.5700","lng":"17.0835"},{"city":"Georgetown","country":"Guyana","lat":"6.8020","lng":"-58.1670"},{"city":"Paramaribo","country":"Suriname","lat":"5.8350","lng":"-55.1670"},{"city":"Dili","country":"Timor-Leste","lat":"-8.5594","lng":"125.5795"},{"city":"Nassau","country":"Bahamas, The","lat":"25.0834","lng":"-77.3500"},{"city":"Sucre","country":"Bolivia","lat":"-19.0410","lng":"-65.2595"},{"city":"Nicosia","country":"Cyprus","lat":"35.1667","lng":"33.3666"},{"city":"Dodoma","country":"Tanzania","lat":"-6.1833","lng":"35.7500"},{"city":"Colombo","country":"Sri Lanka","lat":"6.9320","lng":"79.8578"},{"city":"Gaborone","country":"Botswana","lat":"-24.6463","lng":"25.9119"},{"city":"Yamoussoukro","country":"Côte D’Ivoire","lat":"6.8184","lng":"-5.2755"},{"city":"Bridgetown","country":"Barbados","lat":"13.1020","lng":"-59.6165"},{"city":"Suva","country":"Fiji","lat":"-18.1330","lng":"178.4417"},{"city":"Reykjavík","country":"Iceland","lat":"64.1500","lng":"-21.9500"},{"city":"Malabo","country":"Equatorial Guinea","lat":"3.7500","lng":"8.7833"},{"city":"Willemstad","country":"Curaçao","lat":"12.2004","lng":"-69.0200"},{"city":"Podgorica","country":"Montenegro","lat":"42.4660","lng":"19.2663"},{"city":"Moroni","country":"Comoros","lat":"-11.7042","lng":"43.2402"},{"city":"Sri Jayewardenepura Kotte","country":"Sri Lanka","lat":"6.9000","lng":"79.9500"},{"city":"Praia","country":"Cabo Verde","lat":"14.9167","lng":"-23.5167"},{"city":"Male","country":"Maldives","lat":"4.1667","lng":"73.4999"},{"city":"Juba","country":"South Sudan","lat":"4.8300","lng":"31.5800"},{"city":"Luxembourg","country":"Luxembourg","lat":"49.6117","lng":"6.1300"},{"city":"Thimphu","country":"Bhutan","lat":"27.4730","lng":"89.6390"},{"city":"Mbabane","country":"Swaziland","lat":"-26.3167","lng":"31.1333"},{"city":"São Tomé","country":"Sao Tome And Principe","lat":"0.3334","lng":"6.7333"},{"city":"Honiara","country":"Solomon Islands","lat":"-9.4380","lng":"159.9498"},{"city":"Oranjestad","country":"Aruba","lat":"12.5304","lng":"-70.0290"},{"city":"Apia","country":"Samoa","lat":"-13.8415","lng":"-171.7386"},{"city":"Andorra la Vella","country":"Andorra","lat":"42.5000","lng":"1.5165"},{"city":"Kingstown","country":"Saint Vincent And The Grenadines","lat":"13.1483","lng":"-61.2121"},{"city":"Port-Vila","country":"Vanuatu","lat":"-17.7334","lng":"168.3166"},{"city":"Banjul","country":"Gambia, The","lat":"13.4539","lng":"-16.5917"},{"city":"Nuku‘alofa","country":"Tonga","lat":"-21.1385","lng":"-175.2206"},{"city":"Castries","country":"Saint Lucia","lat":"14.0020","lng":"-61.0000"},{"city":"Monaco","country":"Monaco","lat":"43.7396","lng":"7.4069"},{"city":"Vaduz","country":"Liechtenstein","lat":"47.1337","lng":"9.5167"},{"city":"Saint John’s","country":"Antigua And Barbuda","lat":"17.1180","lng":"-61.8500"},{"city":"Saint George’s","country":"Grenada","lat":"12.0526","lng":"-61.7416"},{"city":"Victoria","country":"Seychelles","lat":"-4.6166","lng":"55.4500"},{"city":"San Marino","country":"San Marino","lat":"43.9172","lng":"12.4667"},{"city":"Tarawa","country":"Kiribati","lat":"1.3382","lng":"173.0176"},{"city":"Majuro","country":"Marshall Islands","lat":"7.1030","lng":"171.3800"},{"city":"Roseau","country":"Dominica","lat":"15.3010","lng":"-61.3870"},{"city":"Basseterre","country":"Saint Kitts And Nevis","lat":"17.3020","lng":"-62.7170"},{"city":"Belmopan","country":"Belize","lat":"17.2520","lng":"-88.7671"},{"city":"Pago Pago","country":"American Samoa","lat":"-14.2740","lng":"-170.7046"},{"city":"Lobamba","country":"Swaziland","lat":"-26.4667","lng":"31.2000"},{"city":"Funafuti","country":"Tuvalu","lat":"-8.5167","lng":"179.2166"},{"city":"Palikir","country":"Micronesia, Federated States Of","lat":"6.9166","lng":"158.1500"},{"city":"Capitol Hill","country":"Northern Mariana Islands","lat":"15.2137","lng":"145.7546"},{"city":"Hagåtña","country":"Guam","lat":"13.4745","lng":"144.7504"},{"city":"Al Quds","country":"West Bank","lat":"31.7764","lng":"35.2269"},{"city":"Philipsburg","country":"Sint Maarten","lat":"18.0255","lng":"-63.0450"},{"city":"Gitega","country":"Burundi","lat":"-3.4271","lng":"29.9246"},{"city":"Pristina","country":"Kosovo","lat":"42.6666","lng":"21.1724"},{"city":"Ngerulmud","country":"Palau","lat":"7.5000","lng":"134.6242"},{"city":"Aden","country":"Yemen","lat":"12.7797","lng":"45.0095"},{"city":"Cochabamba","country":"Bolivia","lat":"-17.4100","lng":"-66.1700"},{"city":"Yongzhou","country":"China","lat":"26.2304","lng":"111.6200"},{"city":"Baoshan","country":"China","lat":"25.1200","lng":"99.1500"},{"city":"Quảng Hà","country":"Vietnam","lat":"16.0600","lng":"108.2500"},{"city":"Kitaku","country":"Japan","lat":"33.8704","lng":"130.8200"},{"city":"Perm’","country":"Russia","lat":"58.0000","lng":"56.2500"},{"city":"Ahvāz","country":"Iran","lat":"31.2800","lng":"48.7200"},{"city":"Jodhpur","country":"India","lat":"26.2918","lng":"73.0168"},{"city":"San Luis Potosí","country":"Mexico","lat":"22.1700","lng":"-101.0000"},{"city":"Odesa","country":"Ukraine","lat":"46.4900","lng":"30.7100"},{"city":"Yinchuan","country":"China","lat":"38.4680","lng":"106.2730"},{"city":"Jiaxing","country":"China","lat":"30.7704","lng":"120.7500"},{"city":"Joinvile","country":"Brazil","lat":"-26.3200","lng":"-48.8399"},{"city":"Donets’k","country":"Ukraine","lat":"48.0000","lng":"37.8300"},{"city":"Guilin","country":"China","lat":"25.2800","lng":"110.2800"},{"city":"Dahūk","country":"Iraq","lat":"36.8667","lng":"43.0000"},{"city":"Volgograd","country":"Russia","lat":"48.7100","lng":"44.5000"},{"city":"Guwāhāti","country":"India","lat":"26.1600","lng":"91.7700"},{"city":"Yichun","country":"China","lat":"27.8333","lng":"114.4000"},{"city":"Yangquan","country":"China","lat":"37.8700","lng":"113.5700"},{"city":"Natal","country":"Brazil","lat":"-6.9838","lng":"-60.2699"},{"city":"Chandigarh","country":"India","lat":"30.7200","lng":"76.7800"},{"city":"Gwalior","country":"India","lat":"26.2300","lng":"78.1801"},{"city":"Hamamatsu","country":"Japan","lat":"34.7181","lng":"137.7327"},{"city":"Qom","country":"Iran","lat":"34.6500","lng":"50.9500"},{"city":"Jixi","country":"China","lat":"45.3000","lng":"130.9700"},{"city":"Mérida","country":"Mexico","lat":"20.9666","lng":"-89.6166"},{"city":"Xin’an","country":"China","lat":"34.3800","lng":"118.3500"},{"city":"Querétaro","country":"Mexico","lat":"20.6300","lng":"-100.3800"},{"city":"Pingxiang","country":"China","lat":"27.6200","lng":"113.8500"},{"city":"João Pessoa","country":"Brazil","lat":"-7.1011","lng":"-34.8761"},{"city":"Klang","country":"Malaysia","lat":"3.0204","lng":"101.5500"},{"city":"Jinzhou","country":"China","lat":"41.1204","lng":"121.1000"},{"city":"Oklahoma City","country":"United States","lat":"35.4676","lng":"-97.5137"},{"city":"Salerno","country":"Italy","lat":"40.6804","lng":"14.7699"},{"city":"Thiruvananthapuram","country":"India","lat":"8.5000","lng":"76.9500"},{"city":"Calicut","country":"India","lat":"11.2504","lng":"75.7700"},{"city":"Trichinopoly","country":"India","lat":"10.8100","lng":"78.6900"},{"city":"Ogbomoso","country":"Nigeria","lat":"8.1300","lng":"4.2400"},{"city":"General Santos","country":"Philippines","lat":"6.1108","lng":"125.1747"},{"city":"Huế","country":"Vietnam","lat":"16.4700","lng":"107.5800"},{"city":"Bacolod","country":"Philippines","lat":"10.6317","lng":"122.9817"},{"city":"Nantong","country":"China","lat":"32.0304","lng":"120.8250"},{"city":"Foshan","country":"China","lat":"23.0301","lng":"113.1200"},{"city":"Sŏngnam","country":"Korea, South","lat":"37.4386","lng":"127.1378"},{"city":"Bridgeport","country":"United States","lat":"41.1918","lng":"-73.1953"},{"city":"Nice","country":"France","lat":"43.7150","lng":"7.2650"},{"city":"Buffalo","country":"United States","lat":"42.9017","lng":"-78.8487"},{"city":"Erbil","country":"Iraq","lat":"36.1790","lng":"44.0086"},{"city":"Krasnoyarsk","country":"Russia","lat":"56.0140","lng":"92.8660"},{"city":"Olinda","country":"Brazil","lat":"-8.0000","lng":"-34.8500"},{"city":"Antwerp","country":"Belgium","lat":"51.2204","lng":"4.4150"},{"city":"Konya","country":"Turkey","lat":"37.8750","lng":"32.4750"},{"city":"Bogor","country":"Indonesia","lat":"-6.5700","lng":"106.7500"},{"city":"Hartford","country":"United States","lat":"41.7661","lng":"-72.6834"},{"city":"Huaibei","country":"China","lat":"33.9504","lng":"116.7500"},{"city":"Xinyu","country":"China","lat":"27.8000","lng":"114.9300"},{"city":"Teresina","country":"Brazil","lat":"-5.0950","lng":"-42.7800"},{"city":"Naha","country":"Japan","lat":"26.2072","lng":"127.6730"},{"city":"Goyang","country":"Korea, South","lat":"37.6527","lng":"126.8372"},{"city":"Nangandao","country":"China","lat":"35.3204","lng":"113.8700"},{"city":"Yibin","country":"China","lat":"28.7700","lng":"104.5700"},{"city":"Aba","country":"Nigeria","lat":"5.1004","lng":"7.3500"},{"city":"Maiduguri","country":"Nigeria","lat":"11.8500","lng":"13.1600"},{"city":"Az Zarqā’","country":"Jordan","lat":"32.0700","lng":"36.1000"},{"city":"Tarsus","country":"Turkey","lat":"36.9204","lng":"34.8800"},{"city":"Bengbu","country":"China","lat":"32.9500","lng":"117.3300"},{"city":"Mendoza","country":"Argentina","lat":"-32.8833","lng":"-68.8166"},{"city":"Hubli","country":"India","lat":"15.3600","lng":"75.1250"},{"city":"Concepción","country":"Chile","lat":"-36.8300","lng":"-73.0500"},{"city":"Zaria","country":"Nigeria","lat":"11.0800","lng":"7.7100"},{"city":"Dengtalu","country":"China","lat":"36.0800","lng":"114.3500"},{"city":"Cartagena","country":"Colombia","lat":"10.3997","lng":"-75.5144"},{"city":"Mysore","country":"India","lat":"12.3100","lng":"76.6600"},{"city":"Mexicali","country":"Mexico","lat":"32.6500","lng":"-115.4800"},{"city":"Tongliao","country":"China","lat":"43.6200","lng":"122.2700"},{"city":"Mombasa","country":"Kenya","lat":"-4.0400","lng":"39.6899"},{"city":"Newcastle upon Tyne","country":"United Kingdom","lat":"55.0004","lng":"-1.6000"},{"city":"Novo Hamburgo","country":"Brazil","lat":"-29.7096","lng":"-51.1400"},{"city":"Callao","country":"Peru","lat":"-12.0700","lng":"-77.1350"},{"city":"Bilbao","country":"Spain","lat":"43.2500","lng":"-2.9300"},{"city":"Johor Bahru","country":"Malaysia","lat":"1.4800","lng":"103.7300"},{"city":"Raipur","country":"India","lat":"21.2350","lng":"81.6350"},{"city":"Xiaoxita","country":"China","lat":"30.7000","lng":"111.2800"},{"city":"Fort Worth","country":"United States","lat":"32.7812","lng":"-97.3472"},{"city":"Salem","country":"India","lat":"11.6700","lng":"78.1801"},{"city":"Yangjiang","country":"China","lat":"21.8504","lng":"111.9700"},{"city":"Marrakech","country":"Morocco","lat":"31.6300","lng":"-8.0000"},{"city":"Kaifeng Chengguanzhen","country":"China","lat":"34.8500","lng":"114.3500"},{"city":"Dandong","country":"China","lat":"40.1436","lng":"124.3936"},{"city":"Al Başrah","country":"Iraq","lat":"30.5135","lng":"47.8136"},{"city":"Aguascalientes","country":"Mexico","lat":"21.8795","lng":"-102.2904"},{"city":"Tucson","country":"United States","lat":"32.1545","lng":"-110.8782"},{"city":"Okayama","country":"Japan","lat":"34.6720","lng":"133.9171"},{"city":"Bucheon","country":"Korea, South","lat":"37.4989","lng":"126.7831"},{"city":"Xuanzhou","country":"China","lat":"30.9525","lng":"118.7553"},{"city":"Bandar Lampung","country":"Indonesia","lat":"-5.4300","lng":"105.2700"},{"city":"Rizhao","country":"China","lat":"35.4304","lng":"119.4500"},{"city":"Palermo","country":"Italy","lat":"38.1250","lng":"13.3500"},{"city":"Caerdydd","country":"United Kingdom","lat":"51.5000","lng":"-3.2250"},{"city":"Tampico","country":"Mexico","lat":"22.3000","lng":"-97.8700"},{"city":"Jiaozuo","country":"China","lat":"35.2500","lng":"113.2200"},{"city":"Padang","country":"Indonesia","lat":"-0.9600","lng":"100.3600"},{"city":"Jalandhar","country":"India","lat":"31.3349","lng":"75.5690"},{"city":"Zhenjiang","country":"China","lat":"32.2200","lng":"119.4300"},{"city":"Valparaíso","country":"Chile","lat":"-33.0478","lng":"-71.6210"},{"city":"Pingdingshan","country":"China","lat":"33.7304","lng":"113.3000"},{"city":"Zunyi","country":"China","lat":"27.7000","lng":"106.9200"},{"city":"Anshun","country":"China","lat":"26.2504","lng":"105.9300"},{"city":"Toulouse","country":"France","lat":"43.6200","lng":"1.4499"},{"city":"El Paso","country":"United States","lat":"31.8479","lng":"-106.4309"},{"city":"Iguaçu","country":"Brazil","lat":"-22.7400","lng":"-43.4700"},{"city":"Bhubaneshwar","country":"India","lat":"20.2704","lng":"85.8274"},{"city":"Voronezh","country":"Russia","lat":"51.7300","lng":"39.2700"},{"city":"Saratov","country":"Russia","lat":"51.5800","lng":"46.0300"},{"city":"Yuci","country":"China","lat":"37.6804","lng":"112.7300"},{"city":"Yancheng","country":"China","lat":"33.3856","lng":"120.1253"},{"city":"Cuernavaca","country":"Mexico","lat":"18.9211","lng":"-99.2400"},{"city":"Linfen","country":"China","lat":"36.0803","lng":"111.5200"},{"city":"Honolulu","country":"United States","lat":"21.3294","lng":"-157.8460"},{"city":"Warri","country":"Nigeria","lat":"5.5200","lng":"5.7600"},{"city":"Basel","country":"Switzerland","lat":"47.5804","lng":"7.5900"},{"city":"San Miguel de Tucumán","country":"Argentina","lat":"-26.8160","lng":"-65.2166"},{"city":"Kermānshāh","country":"Iran","lat":"34.3800","lng":"47.0600"},{"city":"Thessaloníki","country":"Greece","lat":"40.6961","lng":"22.8850"},{"city":"Omaha","country":"United States","lat":"41.2628","lng":"-96.0498"},{"city":"Kota","country":"India","lat":"25.1800","lng":"75.8350"},{"city":"Braga","country":"Portugal","lat":"41.5550","lng":"-8.4213"},{"city":"Jhānsi","country":"India","lat":"25.4530","lng":"78.5575"},{"city":"Rongjiawan","country":"China","lat":"29.3801","lng":"113.1000"},{"city":"Nottingham","country":"United Kingdom","lat":"52.9703","lng":"-1.1700"},{"city":"Agadir","country":"Morocco","lat":"30.4400","lng":"-9.6200"},{"city":"Butterworth","country":"Malaysia","lat":"5.4171","lng":"100.4000"},{"city":"Bareilly","country":"India","lat":"28.3454","lng":"79.4200"},{"city":"Jos","country":"Nigeria","lat":"9.9300","lng":"8.8900"},{"city":"Xingyi","country":"China","lat":"25.0904","lng":"104.8900"},{"city":"Cebu City","country":"Philippines","lat":"10.3200","lng":"123.9001"},{"city":"Arequipa","country":"Peru","lat":"-16.4200","lng":"-71.5300"},{"city":"Liverpool","country":"United Kingdom","lat":"53.4160","lng":"-2.9180"},{"city":"Wuhu","country":"China","lat":"31.3504","lng":"118.3700"},{"city":"Langfang","country":"China","lat":"39.5204","lng":"116.6800"},{"city":"Rājshāhi","country":"Bangladesh","lat":"24.3750","lng":"88.6050"},{"city":"Zhaotong","country":"China","lat":"27.3204","lng":"103.7200"},{"city":"Culiacán","country":"Mexico","lat":"24.8300","lng":"-107.3800"},{"city":"Valencia","country":"Spain","lat":"39.4850","lng":"-0.4000"},{"city":"Lingyuan","country":"China","lat":"41.2400","lng":"119.4011"},{"city":"Cuiabá","country":"Brazil","lat":"-15.5696","lng":"-56.0850"},{"city":"Quy Nhơn","country":"Vietnam","lat":"13.7800","lng":"109.1800"},{"city":"Malang","country":"Indonesia","lat":"-7.9800","lng":"112.6100"},{"city":"Alīgarh","country":"India","lat":"27.8922","lng":"78.0618"},{"city":"L’viv","country":"Ukraine","lat":"49.8350","lng":"24.0300"},{"city":"Bordeaux","country":"France","lat":"44.8500","lng":"-0.5950"},{"city":"McAllen","country":"United States","lat":"26.2273","lng":"-98.2471"},{"city":"Baojishi","country":"China","lat":"34.3800","lng":"107.1500"},{"city":"Pekanbaru","country":"Indonesia","lat":"0.5650","lng":"101.4250"},{"city":"Oran","country":"Algeria","lat":"35.7100","lng":"-0.6200"},{"city":"Yingkou","country":"China","lat":"40.6703","lng":"122.2800"},{"city":"Bhiwandi","country":"India","lat":"19.3500","lng":"73.1300"},{"city":"Liaoyang","country":"China","lat":"41.2800","lng":"123.1800"},{"city":"Chihuahua","country":"Mexico","lat":"28.6450","lng":"-106.0850"},{"city":"Jammu","country":"India","lat":"32.7118","lng":"74.8467"},{"city":"Melaka","country":"Malaysia","lat":"2.2064","lng":"102.2465"},{"city":"Zaporizhzhya","country":"Ukraine","lat":"47.8573","lng":"35.1768"},{"city":"Morādābād","country":"India","lat":"28.8418","lng":"78.7568"},{"city":"Antalya","country":"Turkey","lat":"36.8900","lng":"30.7000"},{"city":"Al Ḩudaydah","country":"Yemen","lat":"14.7979","lng":"42.9530"},{"city":"Campo Grande","country":"Brazil","lat":"-20.4500","lng":"-54.6166"},{"city":"Shaoxing","country":"China","lat":"30.0004","lng":"120.5700"},{"city":"Yichun","country":"China","lat":"47.6999","lng":"128.9000"},{"city":"Mangalore","country":"India","lat":"12.9000","lng":"74.8500"},{"city":"Wuppertal","country":"Germany","lat":"51.2500","lng":"7.1700"},{"city":"Cheongju","country":"Korea, South","lat":"36.6439","lng":"127.5012"},{"city":"Zamboanga City","country":"Philippines","lat":"6.9200","lng":"122.0800"},{"city":"Hamhŭng","country":"Korea, North","lat":"39.9101","lng":"127.5454"},{"city":"Fuyang","country":"China","lat":"30.0533","lng":"119.9519"},{"city":"Ilorin","country":"Nigeria","lat":"8.4900","lng":"4.5500"},{"city":"Saarbrücken","country":"Germany","lat":"49.2504","lng":"6.9700"},{"city":"Fuxin","country":"China","lat":"42.0105","lng":"121.6600"},{"city":"Shiyan","country":"China","lat":"32.5700","lng":"110.7800"},{"city":"Quetta","country":"Pakistan","lat":"30.2200","lng":"67.0250"},{"city":"Trujillo","country":"Peru","lat":"-8.1200","lng":"-79.0200"},{"city":"Kananga","country":"Congo (Kinshasa)","lat":"-5.8900","lng":"22.4000"},{"city":"Trabzon","country":"Turkey","lat":"40.9800","lng":"39.7200"},{"city":"Jincheng","country":"China","lat":"35.5004","lng":"112.8300"},{"city":"Albuquerque","country":"United States","lat":"35.1053","lng":"-106.6464"},{"city":"Łódź","country":"Poland","lat":"51.7750","lng":"19.4514"},{"city":"Kraków","country":"Poland","lat":"50.0600","lng":"19.9600"},{"city":"Saltillo","country":"Mexico","lat":"25.4200","lng":"-101.0050"},{"city":"São José dos Campos","country":"Brazil","lat":"-23.2000","lng":"-45.8799"},{"city":"Hŭngnam","country":"Korea, North","lat":"39.8231","lng":"127.6232"},{"city":"Ta‘izz","country":"Yemen","lat":"13.6045","lng":"44.0394"},{"city":"Pietermaritzburg","country":"South Africa","lat":"-29.6100","lng":"30.3900"},{"city":"Tangier","country":"Morocco","lat":"35.7473","lng":"-5.8327"},{"city":"Hsinchu","country":"Taiwan","lat":"24.8168","lng":"120.9767"},{"city":"Changhua","country":"Taiwan","lat":"24.0734","lng":"120.5134"},{"city":"Kolhāpur","country":"India","lat":"16.7000","lng":"74.2200"},{"city":"Farg‘ona","country":"Uzbekistan","lat":"40.3900","lng":"71.7800"},{"city":"Namangan","country":"Uzbekistan","lat":"41.0000","lng":"71.6700"},{"city":"Liège","country":"Belgium","lat":"50.6300","lng":"5.5800"},{"city":"Ciudad Guayana","country":"Venezuela","lat":"8.3700","lng":"-62.6200"},{"city":"Birmingham","country":"United States","lat":"33.5277","lng":"-86.7987"},{"city":"Hegang","country":"China","lat":"47.4000","lng":"130.3700"},{"city":"Naga City","country":"Philippines","lat":"13.6192","lng":"123.1814"},{"city":"Gdańsk","country":"Poland","lat":"54.3600","lng":"18.6400"},{"city":"Ansan","country":"Korea, South","lat":"37.3481","lng":"126.8595"},{"city":"Nuremberg","country":"Germany","lat":"49.4500","lng":"11.0800"},{"city":"Oyo","country":"Nigeria","lat":"7.8504","lng":"3.9300"},{"city":"Amrāvati","country":"India","lat":"20.9500","lng":"77.7700"},{"city":"Denpasar","country":"Indonesia","lat":"-8.6500","lng":"115.2200"},{"city":"Sokoto","country":"Nigeria","lat":"13.0600","lng":"5.2400"},{"city":"Beihai","country":"China","lat":"21.4804","lng":"109.1000"},{"city":"Bremen","country":"Germany","lat":"53.0800","lng":"8.8000"},{"city":"As Sulaymānīyah","country":"Iraq","lat":"35.5613","lng":"45.4309"},{"city":"Hannover","country":"Germany","lat":"52.3670","lng":"9.7167"},{"city":"Cúcuta","country":"Colombia","lat":"7.9200","lng":"-72.5200"},{"city":"Hamilton","country":"Canada","lat":"43.2500","lng":"-79.8300"},{"city":"Moshi","country":"Tanzania","lat":"-3.3396","lng":"37.3400"},{"city":"Shaoguan","country":"China","lat":"24.8000","lng":"113.5800"},{"city":"Kumamoto","country":"Japan","lat":"32.8009","lng":"130.7006"},{"city":"Dayton","country":"United States","lat":"39.7797","lng":"-84.1998"},{"city":"Xinpu","country":"China","lat":"34.6004","lng":"119.1700"},{"city":"Acapulco de Juárez","country":"Mexico","lat":"16.8500","lng":"-99.9160"},{"city":"Kandahār","country":"Afghanistan","lat":"31.6100","lng":"65.6949"},{"city":"Dehra Dūn","country":"India","lat":"30.3204","lng":"78.0500"},{"city":"Rochester","country":"United States","lat":"43.1680","lng":"-77.6162"},{"city":"Jeonju","country":"Korea, South","lat":"35.8314","lng":"127.1404"},{"city":"Samarkand","country":"Uzbekistan","lat":"39.6700","lng":"66.9450"},{"city":"Qingyuan","country":"China","lat":"23.7004","lng":"113.0301"},{"city":"Sarasota","country":"United States","lat":"27.3386","lng":"-82.5430"},{"city":"Changzhi","country":"China","lat":"36.1839","lng":"113.1053"},{"city":"Tol’yatti","country":"Russia","lat":"53.4804","lng":"49.5300"},{"city":"Jaboatão","country":"Brazil","lat":"-8.1100","lng":"-35.0200"},{"city":"Shizuoka","country":"Japan","lat":"34.9858","lng":"138.3854"},{"city":"Bulawayo","country":"Zimbabwe","lat":"-20.1700","lng":"28.5800"},{"city":"Soledad","country":"Colombia","lat":"10.9200","lng":"-74.7700"},{"city":"Fresno","country":"United States","lat":"36.7831","lng":"-119.7941"},{"city":"Meknès","country":"Morocco","lat":"33.9004","lng":"-5.5600"},{"city":"La Plata","country":"Argentina","lat":"-34.9096","lng":"-57.9600"},{"city":"Mālegaon","country":"India","lat":"20.5604","lng":"74.5250"},{"city":"Enugu","country":"Nigeria","lat":"6.4500","lng":"7.5000"},{"city":"Huangshi","country":"China","lat":"30.2200","lng":"115.1000"},{"city":"Aracaju","country":"Brazil","lat":"-10.9000","lng":"-37.1200"},{"city":"Allentown","country":"United States","lat":"40.5961","lng":"-75.4755"},{"city":"Bonn","country":"Germany","lat":"50.7205","lng":"7.0800"},{"city":"San Pedro Sula","country":"Honduras","lat":"15.5000","lng":"-88.0300"},{"city":"Nellore","country":"India","lat":"14.4400","lng":"79.9899"},{"city":"Catania","country":"Italy","lat":"37.5000","lng":"15.0800"},{"city":"Gorakhpur","country":"India","lat":"26.7504","lng":"83.3800"},{"city":"Ipoh","country":"Malaysia","lat":"4.6000","lng":"101.0650"},{"city":"Ch’ŏngjin","country":"Korea, North","lat":"41.7846","lng":"129.7900"},{"city":"Tulsa","country":"United States","lat":"36.1284","lng":"-95.9043"},{"city":"Utsunomiya","country":"Japan","lat":"36.5500","lng":"139.8700"},{"city":"Puyang Chengguanzhen","country":"China","lat":"35.7004","lng":"114.9800"},{"city":"An Najaf","country":"Iraq","lat":"32.0003","lng":"44.3354"},{"city":"São José dos Pinhais","country":"Brazil","lat":"-25.5700","lng":"-49.1800"},{"city":"Santo André","country":"Brazil","lat":"-23.6528","lng":"-46.5278"},{"city":"Bytom","country":"Poland","lat":"50.3500","lng":"18.9100"},{"city":"Pointe-Noire","country":"Congo (Brazzaville)","lat":"-4.7700","lng":"11.8800"},{"city":"Aţ Ţā’if","country":"Saudi Arabia","lat":"21.2622","lng":"40.3823"},{"city":"Ismailia","country":"Egypt","lat":"30.5903","lng":"32.2600"},{"city":"Concord","country":"United States","lat":"37.9722","lng":"-122.0016"},{"city":"Shimoga","country":"India","lat":"13.9304","lng":"75.5600"},{"city":"Biên Hòa","country":"Vietnam","lat":"10.9700","lng":"106.8301"},{"city":"Xiping","country":"China","lat":"25.6005","lng":"103.8166"},{"city":"Kryvyy Rih","country":"Ukraine","lat":"47.9283","lng":"33.3450"},{"city":"Irbid","country":"Jordan","lat":"32.5500","lng":"35.8500"},{"city":"Tiruppūr","country":"India","lat":"11.0804","lng":"77.3300"},{"city":"Andijon","country":"Uzbekistan","lat":"40.7900","lng":"72.3400"},{"city":"Krasnodar","country":"Russia","lat":"45.0200","lng":"39.0000"},{"city":"Zaragoza","country":"Spain","lat":"41.6500","lng":"-0.8900"},{"city":"Genoa","country":"Italy","lat":"44.4100","lng":"8.9300"},{"city":"Diyarbakır","country":"Turkey","lat":"37.9204","lng":"40.2300"},{"city":"Morelia","country":"Mexico","lat":"19.7334","lng":"-101.1895"},{"city":"Ul’yanovsk","country":"Russia","lat":"54.3300","lng":"48.4100"},{"city":"Utrecht","country":"Netherlands","lat":"52.1003","lng":"5.1200"},{"city":"Kikwit","country":"Congo (Kinshasa)","lat":"-5.0300","lng":"18.8500"},{"city":"Al Hufūf","country":"Saudi Arabia","lat":"25.3487","lng":"49.5856"},{"city":"Yogyakarta","country":"Indonesia","lat":"-7.7800","lng":"110.3750"},{"city":"Wrocław","country":"Poland","lat":"51.1104","lng":"17.0300"},{"city":"Winnipeg","country":"Canada","lat":"49.8830","lng":"-97.1660"},{"city":"Izhevsk","country":"Russia","lat":"56.8500","lng":"53.2300"},{"city":"Cape Coral","country":"United States","lat":"26.6445","lng":"-81.9955"},{"city":"Springfield","country":"United States","lat":"42.1155","lng":"-72.5395"},{"city":"Zhuozhou","country":"China","lat":"39.5401","lng":"115.7900"},{"city":"Raurkela","country":"India","lat":"22.2304","lng":"84.8300"},{"city":"Québec","country":"Canada","lat":"46.8400","lng":"-71.2456"},{"city":"Poznań","country":"Poland","lat":"52.4058","lng":"16.8999"},{"city":"Colorado Springs","country":"United States","lat":"38.8674","lng":"-104.7606"},{"city":"Port Said","country":"Egypt","lat":"31.2600","lng":"32.2900"},{"city":"Nānded","country":"India","lat":"19.1700","lng":"77.3000"},{"city":"Bannu","country":"Pakistan","lat":"32.9890","lng":"70.5986"},{"city":"Southend-on-Sea","country":"United Kingdom","lat":"51.5500","lng":"0.7200"},{"city":"Dresden","country":"Germany","lat":"51.0500","lng":"13.7500"},{"city":"Wiesbaden","country":"Germany","lat":"50.0804","lng":"8.2500"},{"city":"Charleston","country":"United States","lat":"32.8151","lng":"-79.9630"},{"city":"Changping","country":"China","lat":"40.2248","lng":"116.1944"},{"city":"Palu","country":"Indonesia","lat":"-0.9070","lng":"119.8330"},{"city":"Taizhou","country":"China","lat":"32.4904","lng":"119.9000"},{"city":"Xingtai","country":"China","lat":"37.0500","lng":"114.5000"},{"city":"Samsun","country":"Turkey","lat":"41.2800","lng":"36.3437"},{"city":"Luxor","country":"Egypt","lat":"25.7000","lng":"32.6500"},{"city":"Belgaum","country":"India","lat":"15.8650","lng":"74.5050"},{"city":"Pontianak","country":"Indonesia","lat":"-0.0300","lng":"109.3200"},{"city":"Yaroslavl’","country":"Russia","lat":"57.6200","lng":"39.8700"},{"city":"Constantine","country":"Algeria","lat":"36.3600","lng":"6.5999"},{"city":"Banjarmasin","country":"Indonesia","lat":"-3.3300","lng":"114.5801"},{"city":"Grand Rapids","country":"United States","lat":"42.9615","lng":"-85.6557"},{"city":"Kirkuk","country":"Iraq","lat":"35.4722","lng":"44.3923"},{"city":"Sāngli","country":"India","lat":"16.8604","lng":"74.5750"},{"city":"Barcelona","country":"Venezuela","lat":"10.1304","lng":"-64.7200"},{"city":"Mission Viejo","country":"United States","lat":"33.6095","lng":"-117.6550"},{"city":"Sūhāj","country":"Egypt","lat":"26.5504","lng":"31.7000"},{"city":"Al Manşūrah","country":"Egypt","lat":"31.0504","lng":"31.3800"},{"city":"Canoas","country":"Brazil","lat":"-29.9200","lng":"-51.1800"},{"city":"Barnaul","country":"Russia","lat":"53.3550","lng":"83.7450"},{"city":"Zāhedān","country":"Iran","lat":"29.5000","lng":"60.8300"},{"city":"Jalālābād","country":"Afghanistan","lat":"34.4415","lng":"70.4361"},{"city":"Albany","country":"United States","lat":"42.6664","lng":"-73.7987"},{"city":"Chiclayo","country":"Peru","lat":"-6.7629","lng":"-79.8366"},{"city":"Hermosillo","country":"Mexico","lat":"29.0989","lng":"-110.9541"},{"city":"Chānda","country":"India","lat":"19.9700","lng":"79.3000"},{"city":"Al Ḩillah","country":"Iraq","lat":"32.4721","lng":"44.4217"},{"city":"Al Ḩillah","country":"Saudi Arabia","lat":"23.4895","lng":"46.7564"},{"city":"Rasht","country":"Iran","lat":"37.3000","lng":"49.6300"},{"city":"Nagano","country":"Japan","lat":"36.6500","lng":"138.1700"},{"city":"Vinh","country":"Vietnam","lat":"18.7000","lng":"105.6800"},{"city":"Abeokuta","country":"Nigeria","lat":"7.1604","lng":"3.3500"},{"city":"Kayseri","country":"Turkey","lat":"38.7350","lng":"35.4900"},{"city":"Samarinda","country":"Indonesia","lat":"-0.5000","lng":"117.1500"},{"city":"Ajmer","country":"India","lat":"26.4500","lng":"74.6400"},{"city":"Dortmund","country":"Germany","lat":"51.5300","lng":"7.4500"},{"city":"Vladivostok","country":"Russia","lat":"43.1300","lng":"131.9100"},{"city":"Irkutsk","country":"Russia","lat":"52.3200","lng":"104.2450"},{"city":"Knoxville","country":"United States","lat":"35.9692","lng":"-83.9496"},{"city":"Blantyre","country":"Malawi","lat":"-15.7900","lng":"34.9899"},{"city":"Baton Rouge","country":"United States","lat":"30.4419","lng":"-91.1310"},{"city":"Anqing","country":"China","lat":"30.5000","lng":"117.0500"},{"city":"Cuttack","country":"India","lat":"20.4700","lng":"85.8899"},{"city":"Hachiōji","country":"Japan","lat":"35.6577","lng":"139.3261"},{"city":"Khabarovsk","country":"Russia","lat":"48.4550","lng":"135.1200"},{"city":"Veracruz","country":"Mexico","lat":"19.1773","lng":"-96.1600"},{"city":"Kisangani","country":"Congo (Kinshasa)","lat":"0.5200","lng":"25.2200"},{"city":"Kermān","country":"Iran","lat":"30.3000","lng":"57.0800"},{"city":"Orūmīyeh","country":"Iran","lat":"37.5300","lng":"45.0000"},{"city":"Bīkaner","country":"India","lat":"28.0304","lng":"73.3299"},{"city":"Quetzaltenango","country":"Guatemala","lat":"14.8300","lng":"-91.5200"},{"city":"Bakersfield","country":"United States","lat":"35.3530","lng":"-119.0359"},{"city":"Ogden","country":"United States","lat":"41.2280","lng":"-111.9677"},{"city":"Shihezi","country":"China","lat":"44.3000","lng":"86.0299"},{"city":"Kuching","country":"Malaysia","lat":"1.5300","lng":"110.3300"},{"city":"Shuozhou","country":"China","lat":"39.3004","lng":"112.4200"},{"city":"Niigata","country":"Japan","lat":"37.9200","lng":"139.0400"},{"city":"Pereira","country":"Colombia","lat":"4.8104","lng":"-75.6800"},{"city":"Macau","country":"Macau","lat":"22.2030","lng":"113.5450"},{"city":"New Haven","country":"United States","lat":"41.3112","lng":"-72.9246"},{"city":"Bouaké","country":"Côte D’Ivoire","lat":"7.6900","lng":"-5.0300"},{"city":"Columbia","country":"United States","lat":"34.0376","lng":"-80.9037"},{"city":"Akron","country":"United States","lat":"41.0798","lng":"-81.5219"},{"city":"Binjai","country":"Indonesia","lat":"3.6204","lng":"98.5001"},{"city":"Uberlândia","country":"Brazil","lat":"-18.9000","lng":"-48.2800"},{"city":"Sorocaba","country":"Brazil","lat":"-23.4900","lng":"-47.4700"},{"city":"Wusong","country":"China","lat":"30.9504","lng":"117.7800"},{"city":"Weihai","country":"China","lat":"37.5000","lng":"122.1000"},{"city":"Mar del Plata","country":"Argentina","lat":"-38.0000","lng":"-57.5800"},{"city":"Santiago de Cuba","country":"Cuba","lat":"20.0250","lng":"-75.8213"},{"city":"Siping","country":"China","lat":"43.1700","lng":"124.3300"},{"city":"Kagoshima","country":"Japan","lat":"31.5860","lng":"130.5611"},{"city":"Surakarta","country":"Indonesia","lat":"-7.5650","lng":"110.8250"},{"city":"Makhachkala","country":"Russia","lat":"42.9800","lng":"47.5000"},{"city":"Bhāvnagar","country":"India","lat":"21.7784","lng":"72.1300"},{"city":"Uyo","country":"Nigeria","lat":"5.0080","lng":"7.8500"},{"city":"Bristol","country":"United Kingdom","lat":"51.4500","lng":"-2.5833"},{"city":"Bahawalpur","country":"Pakistan","lat":"29.3900","lng":"71.6750"},{"city":"Kenitra","country":"Morocco","lat":"34.2704","lng":"-6.5800"},{"city":"Ribeirão Prêto","country":"Brazil","lat":"-21.1700","lng":"-47.8300"},{"city":"Kanazawa","country":"Japan","lat":"36.5600","lng":"136.6400"},{"city":"Orenburg","country":"Russia","lat":"51.7800","lng":"55.1100"},{"city":"Málaga","country":"Spain","lat":"36.7204","lng":"-4.4200"},{"city":"Tabūk","country":"Saudi Arabia","lat":"28.3838","lng":"36.5550"},{"city":"Puerto La Cruz","country":"Venezuela","lat":"10.1700","lng":"-64.6800"},{"city":"Jiujiang","country":"China","lat":"29.7300","lng":"115.9800"},{"city":"Hisar","country":"India","lat":"29.1700","lng":"75.7250"},{"city":"Kashgar","country":"China","lat":"39.4763","lng":"75.9699"},{"city":"Matola","country":"Mozambique","lat":"-25.9696","lng":"32.4600"},{"city":"Bilāspur","country":"India","lat":"22.0904","lng":"82.1600"},{"city":"Sargodha","country":"Pakistan","lat":"32.0854","lng":"72.6750"},{"city":"Leipzig","country":"Germany","lat":"51.3354","lng":"12.4100"},{"city":"Tinnevelly","country":"India","lat":"8.7304","lng":"77.6900"},{"city":"Cancún","country":"Mexico","lat":"21.1700","lng":"-86.8300"},{"city":"Yangzhou","country":"China","lat":"32.4000","lng":"119.4300"},{"city":"Novokuznetsk","country":"Russia","lat":"53.7500","lng":"87.1150"},{"city":"Latakia","country":"Syria","lat":"35.5400","lng":"35.7800"},{"city":"Heroica Matamoros","country":"Mexico","lat":"25.8800","lng":"-97.5000"},{"city":"Göteborg","country":"Sweden","lat":"57.7500","lng":"12.0000"},{"city":"Ōtsu","country":"Japan","lat":"35.0064","lng":"135.8674"},{"city":"Tomsk","country":"Russia","lat":"56.4950","lng":"84.9750"},{"city":"Linxia Chengguanzhen","country":"China","lat":"35.6000","lng":"103.2000"},{"city":"Matsuyama","country":"Japan","lat":"33.8455","lng":"132.7658"},{"city":"Rouen","country":"France","lat":"49.4304","lng":"1.0800"},{"city":"Jiangmen","country":"China","lat":"22.5804","lng":"113.0800"},{"city":"Oaxaca","country":"Mexico","lat":"17.0827","lng":"-96.6699"},{"city":"Beira","country":"Mozambique","lat":"-19.8200","lng":"34.8700"},{"city":"Guntūr","country":"India","lat":"16.3300","lng":"80.4500"},{"city":"Tripoli","country":"Lebanon","lat":"34.4200","lng":"35.8700"},{"city":"Hamadān","country":"Iran","lat":"34.7960","lng":"48.5150"},{"city":"Cangzhou","country":"China","lat":"38.3204","lng":"116.8700"},{"city":"Kota Kinabalu","country":"Malaysia","lat":"5.9800","lng":"116.1100"},{"city":"Gold Coast","country":"Australia","lat":"-28.0815","lng":"153.4482"},{"city":"Ji’an","country":"China","lat":"27.1304","lng":"115.0000"},{"city":"Londrina","country":"Brazil","lat":"-23.3000","lng":"-51.1800"},{"city":"Ryazan’","country":"Russia","lat":"54.6200","lng":"39.7200"},{"city":"Shashi","country":"China","lat":"30.3200","lng":"112.2300"},{"city":"Bello","country":"Colombia","lat":"6.3300","lng":"-75.5700"},{"city":"Tyumen’","country":"Russia","lat":"57.1400","lng":"65.5300"},{"city":"Lipetsk","country":"Russia","lat":"52.6200","lng":"39.6400"},{"city":"Shiliguri","country":"India","lat":"26.7204","lng":"88.4550"},{"city":"Eskişehir","country":"Turkey","lat":"39.7950","lng":"30.5300"},{"city":"Banda Aceh","country":"Indonesia","lat":"5.5500","lng":"95.3200"},{"city":"Ujjain","country":"India","lat":"23.1904","lng":"75.7900"},{"city":"Salta","country":"Argentina","lat":"-24.7834","lng":"-65.4166"},{"city":"Penza","country":"Russia","lat":"53.1800","lng":"45.0000"},{"city":"Blida","country":"Algeria","lat":"36.4203","lng":"2.8300"},{"city":"Mykolayiv","country":"Ukraine","lat":"46.9677","lng":"31.9843"},{"city":"Karbalā’","country":"Iraq","lat":"32.6149","lng":"44.0245"},{"city":"Suez","country":"Egypt","lat":"30.0050","lng":"32.5499"},{"city":"Gliwice","country":"Poland","lat":"50.3304","lng":"18.6700"},{"city":"Bukittinggi","country":"Indonesia","lat":"-0.3031","lng":"100.3615"},{"city":"Liaoyuan","country":"China","lat":"42.9000","lng":"125.1300"},{"city":"Kota Bharu","country":"Malaysia","lat":"6.1200","lng":"102.2300"},{"city":"Jundiaí","country":"Brazil","lat":"-23.2000","lng":"-46.8800"},{"city":"Edinburgh","country":"United Kingdom","lat":"55.9483","lng":"-3.2191"},{"city":"Tlaxcala","country":"Mexico","lat":"19.3200","lng":"-98.2300"},{"city":"Provo","country":"United States","lat":"40.2457","lng":"-111.6457"},{"city":"Arāk","country":"Iran","lat":"34.0804","lng":"49.7000"},{"city":"Davangere","country":"India","lat":"14.4700","lng":"75.9200"},{"city":"Viña del Mar","country":"Chile","lat":"-33.0300","lng":"-71.5400"},{"city":"Pingtung","country":"Taiwan","lat":"22.6817","lng":"120.4817"},{"city":"Annaba","country":"Algeria","lat":"36.9200","lng":"7.7600"},{"city":"Akola","country":"India","lat":"20.7100","lng":"77.0100"},{"city":"Brighton","country":"United Kingdom","lat":"50.8303","lng":"-0.1700"},{"city":"Astrakhan’","country":"Russia","lat":"46.3487","lng":"48.0550"},{"city":"Bradford","country":"United Kingdom","lat":"53.8000","lng":"-1.7500"},{"city":"Bari","country":"Italy","lat":"41.1142","lng":"16.8728"},{"city":"Damanhūr","country":"Egypt","lat":"31.0504","lng":"30.4700"},{"city":"Al Minyā","country":"Egypt","lat":"28.0900","lng":"30.7500"},{"city":"Taoyuan District","country":"Taiwan","lat":"24.9889","lng":"121.3111"},{"city":"Keelung","country":"Taiwan","lat":"25.1333","lng":"121.7333"},{"city":"San Lorenzo","country":"Paraguay","lat":"-25.3400","lng":"-57.5200"},{"city":"Pasuruan","country":"Indonesia","lat":"-7.6296","lng":"112.9000"},{"city":"Chiayi","country":"Taiwan","lat":"23.4755","lng":"120.4351"},{"city":"Thái Nguyên","country":"Vietnam","lat":"21.6000","lng":"105.8300"},{"city":"Awka","country":"Nigeria","lat":"6.2104","lng":"7.0700"},{"city":"Shuangyashan","country":"China","lat":"46.6704","lng":"131.3500"},{"city":"Mazatán","country":"Mexico","lat":"29.0171","lng":"-110.1333"},{"city":"Tsu","country":"Japan","lat":"34.7171","lng":"136.5167"},{"city":"Mataram","country":"Indonesia","lat":"-8.5795","lng":"116.1350"},{"city":"Macapá","country":"Brazil","lat":"0.0330","lng":"-51.0500"},{"city":"Worcester","country":"United States","lat":"42.2705","lng":"-71.8079"},{"city":"Reynosa","country":"Mexico","lat":"26.0800","lng":"-98.3000"},{"city":"Shahrisabz","country":"Uzbekistan","lat":"39.0618","lng":"66.8315"},{"city":"Mesa","country":"United States","lat":"33.4017","lng":"-111.7181"},{"city":"Dūmā","country":"Syria","lat":"33.5833","lng":"36.4000"},{"city":"Mwanza","country":"Tanzania","lat":"-2.5200","lng":"32.9300"},{"city":"Wuwei","country":"China","lat":"37.9280","lng":"102.6410"},{"city":"Palm Bay","country":"United States","lat":"27.9550","lng":"-80.6628"},{"city":"Port Sudan","country":"Sudan","lat":"19.6158","lng":"37.2164"},{"city":"Santa Fe","country":"Argentina","lat":"-31.6239","lng":"-60.6900"},{"city":"Tula","country":"Russia","lat":"54.2000","lng":"37.6299"},{"city":"Banī Suwayf","country":"Egypt","lat":"29.0804","lng":"31.0900"},{"city":"Yanji","country":"China","lat":"42.8823","lng":"129.5128"},{"city":"Toledo","country":"United States","lat":"41.6639","lng":"-83.5822"},{"city":"Bologna","country":"Italy","lat":"44.5004","lng":"11.3400"},{"city":"Brookhaven","country":"United States","lat":"40.8321","lng":"-72.9518"},{"city":"Sahāranpur","country":"India","lat":"29.9700","lng":"77.5500"},{"city":"Murrieta","country":"United States","lat":"33.5720","lng":"-117.1909"},{"city":"Gulbarga","country":"India","lat":"17.3500","lng":"76.8200"},{"city":"Bhātpāra","country":"India","lat":"22.8504","lng":"88.5200"},{"city":"Wichita","country":"United States","lat":"37.6897","lng":"-97.3441"},{"city":"Ile-Ife","country":"Nigeria","lat":"7.4804","lng":"4.5600"},{"city":"Feira de Santana","country":"Brazil","lat":"-12.2500","lng":"-38.9700"},{"city":"Shah Alam","country":"Malaysia","lat":"3.0667","lng":"101.5500"},{"city":"Mariupol’","country":"Ukraine","lat":"47.0962","lng":"37.5562"},{"city":"Des Moines","country":"United States","lat":"41.5725","lng":"-93.6105"},{"city":"Tuxtla","country":"Mexico","lat":"16.7500","lng":"-93.1500"},{"city":"Herāt","country":"Afghanistan","lat":"34.3300","lng":"62.1700"},{"city":"Homyel’","country":"Belarus","lat":"52.4300","lng":"31.0000"},{"city":"Zhaoqing","country":"China","lat":"23.0504","lng":"112.4500"},{"city":"Americana","country":"Brazil","lat":"-22.7499","lng":"-47.3300"},{"city":"Dhūlia","country":"India","lat":"20.9000","lng":"74.7700"},{"city":"Ostrava","country":"Czechia","lat":"49.8304","lng":"18.2500"},{"city":"Yazd","country":"Iran","lat":"31.9201","lng":"54.3700"},{"city":"Sialkot City","country":"Pakistan","lat":"32.5200","lng":"74.5600"},{"city":"Kemerovo","country":"Russia","lat":"55.3400","lng":"86.0900"},{"city":"Nazrēt","country":"Ethiopia","lat":"8.5500","lng":"39.2700"},{"city":"Staten Island","country":"United States","lat":"40.5834","lng":"-74.1496"},{"city":"Jiaojiangcun","country":"China","lat":"28.6804","lng":"121.4500"},{"city":"Chaoyang","country":"China","lat":"41.5504","lng":"120.4200"},{"city":"Juiz de Fora","country":"Brazil","lat":"-21.7700","lng":"-43.3750"},{"city":"Udaipur","country":"India","lat":"24.6000","lng":"73.7300"},{"city":"Long Beach","country":"United States","lat":"33.7980","lng":"-118.1675"},{"city":"Greenville","country":"United States","lat":"34.8362","lng":"-82.3649"},{"city":"Kocaeli","country":"Turkey","lat":"40.7760","lng":"29.9306"},{"city":"Piraeus","country":"Greece","lat":"37.9500","lng":"23.7000"},{"city":"Shymkent","country":"Kazakhstan","lat":"42.3200","lng":"69.5950"},{"city":"Iligan","country":"Philippines","lat":"8.1712","lng":"124.2154"},{"city":"Qazvīn","country":"Iran","lat":"36.2700","lng":"50.0000"},{"city":"Calabar","country":"Nigeria","lat":"4.9604","lng":"8.3300"},{"city":"Malatya","country":"Turkey","lat":"38.3704","lng":"38.3000"},{"city":"Dadukou","country":"China","lat":"26.5500","lng":"101.7300"},{"city":"Bandar ‘Abbās","country":"Iran","lat":"27.2041","lng":"56.2721"},{"city":"Naberezhnyye Chelny","country":"Russia","lat":"55.7000","lng":"52.3199"},{"city":"Ḩamāh","country":"Syria","lat":"35.1503","lng":"36.7300"},{"city":"Cranbourne","country":"Australia","lat":"-38.0996","lng":"145.2834"},{"city":"Iquitos","country":"Peru","lat":"-3.7500","lng":"-73.2500"},{"city":"Mazār-e Sharīf","country":"Afghanistan","lat":"36.7000","lng":"67.1000"},{"city":"Leicester","country":"United Kingdom","lat":"52.6300","lng":"-1.1332"},{"city":"Kirov","country":"Russia","lat":"58.5901","lng":"49.6700"},{"city":"Jingdezhen","country":"China","lat":"29.2704","lng":"117.1800"},{"city":"Durango","country":"Mexico","lat":"24.0311","lng":"-104.6700"},{"city":"Jambi","country":"Indonesia","lat":"-1.5900","lng":"103.6100"},{"city":"Volta Redonda","country":"Brazil","lat":"-22.5196","lng":"-44.0950"},{"city":"Hengshui","country":"China","lat":"37.7200","lng":"115.7000"},{"city":"Sfax","country":"Tunisia","lat":"34.7500","lng":"10.7200"},{"city":"Sunderland","country":"United Kingdom","lat":"54.9200","lng":"-1.3800"},{"city":"Xalapa","country":"Mexico","lat":"19.5300","lng":"-96.9200"},{"city":"Luhans’k","country":"Ukraine","lat":"48.5698","lng":"39.3344"},{"city":"Manado","country":"Indonesia","lat":"1.4800","lng":"124.8500"},{"city":"Qaraghandy","country":"Kazakhstan","lat":"49.8850","lng":"73.1150"},{"city":"An Nāşirīyah","country":"Iraq","lat":"31.0429","lng":"46.2676"},{"city":"Oshawa","country":"Canada","lat":"43.8800","lng":"-78.8500"},{"city":"Taihecun","country":"China","lat":"45.8000","lng":"130.8500"},{"city":"Belfast","country":"United Kingdom","lat":"54.6000","lng":"-5.9600"},{"city":"Şanlıurfa","country":"Turkey","lat":"37.1700","lng":"38.7950"},{"city":"Chengde","country":"China","lat":"40.9604","lng":"117.9300"},{"city":"Jiangguanchi","country":"China","lat":"34.0204","lng":"113.8200"},{"city":"Chlef","country":"Algeria","lat":"36.1704","lng":"1.3200"},{"city":"Ōita","country":"Japan","lat":"33.2432","lng":"131.5979"},{"city":"Baguio City","country":"Philippines","lat":"16.4300","lng":"120.5699"},{"city":"San Juan","country":"Argentina","lat":"-31.5500","lng":"-68.5200"},{"city":"Cheboksary","country":"Russia","lat":"56.1300","lng":"47.2500"},{"city":"Ado-Ekiti","country":"Nigeria","lat":"7.6304","lng":"5.2200"},{"city":"Balikpapan","country":"Indonesia","lat":"-1.2500","lng":"116.8300"},{"city":"Bellary","country":"India","lat":"15.1500","lng":"76.9150"},{"city":"Bamenda","country":"Cameroon","lat":"5.9600","lng":"10.1500"},{"city":"Gent","country":"Belgium","lat":"51.0300","lng":"3.7000"},{"city":"Tokushima","country":"Japan","lat":"34.0674","lng":"134.5525"},{"city":"Little Rock","country":"United States","lat":"34.7255","lng":"-92.3580"},{"city":"Wuzhou","country":"China","lat":"23.4800","lng":"111.3200"},{"city":"Portsmouth","country":"United Kingdom","lat":"50.8003","lng":"-1.0800"},{"city":"Harrisburg","country":"United States","lat":"40.2752","lng":"-76.8843"},{"city":"Cabimas","country":"Venezuela","lat":"10.4300","lng":"-71.4500"},{"city":"Foz do Iguaçu","country":"Brazil","lat":"-25.5235","lng":"-54.5300"},{"city":"Denton","country":"United States","lat":"33.2176","lng":"-97.1419"},{"city":"Wakayama","country":"Japan","lat":"34.2231","lng":"135.1677"},{"city":"Strasbourg","country":"France","lat":"48.5800","lng":"7.7500"},{"city":"Madison","country":"United States","lat":"43.0827","lng":"-89.3923"},{"city":"Mawlamyine","country":"Burma","lat":"16.5004","lng":"97.6700"},{"city":"San Cristóbal","country":"Venezuela","lat":"7.7700","lng":"-72.2500"},{"city":"Nantes","country":"France","lat":"47.2104","lng":"-1.5900"},{"city":"Khŭjand","country":"Tajikistan","lat":"40.2900","lng":"69.6199"},{"city":"Guangyuan","country":"China","lat":"32.4300","lng":"105.8700"},{"city":"Khomeynī Shahr","country":"Iran","lat":"32.7004","lng":"51.4700"},{"city":"Garoua","country":"Cameroon","lat":"9.3000","lng":"13.3900"},{"city":"Bukavu","country":"Congo (Kinshasa)","lat":"-2.5100","lng":"28.8400"},{"city":"Tuticorin","country":"India","lat":"8.8200","lng":"78.1300"},{"city":"Nagasaki","country":"Japan","lat":"32.7650","lng":"129.8850"},{"city":"Pohang","country":"Korea, South","lat":"36.0209","lng":"129.3715"},{"city":"Kaliningrad","country":"Russia","lat":"54.7000","lng":"20.4973"},{"city":"Likasi","country":"Congo (Kinshasa)","lat":"-10.9700","lng":"26.7800"},{"city":"Reno","country":"United States","lat":"39.5497","lng":"-119.8483"},{"city":"Spanish Town","country":"Jamaica","lat":"17.9833","lng":"-76.9500"},{"city":"Port St. Lucie","country":"United States","lat":"27.2796","lng":"-80.3884"},{"city":"San Luis","country":"Argentina","lat":"-33.3000","lng":"-66.3500"},{"city":"Katsina","country":"Nigeria","lat":"12.9904","lng":"7.6000"},{"city":"Welkom","country":"South Africa","lat":"-27.9700","lng":"26.7300"},{"city":"Santa Marta","country":"Colombia","lat":"11.2472","lng":"-74.2017"},{"city":"Villahermosa","country":"Mexico","lat":"18.0000","lng":"-92.9000"},{"city":"Bryansk","country":"Russia","lat":"53.2600","lng":"34.4300"},{"city":"Bournemouth","country":"United Kingdom","lat":"50.7300","lng":"-1.9000"},{"city":"Bengkulu","country":"Indonesia","lat":"-3.8000","lng":"102.2700"},{"city":"Heidelberg","country":"Germany","lat":"49.4200","lng":"8.7000"},{"city":"Oakland","country":"United States","lat":"37.7903","lng":"-122.2165"},{"city":"Kurnool","country":"India","lat":"15.8300","lng":"78.0300"},{"city":"Chaozhou","country":"China","lat":"23.6800","lng":"116.6300"},{"city":"Batangas","country":"Philippines","lat":"13.7817","lng":"121.0217"},{"city":"Gaya","country":"India","lat":"24.8000","lng":"85.0000"},{"city":"Ibagué","country":"Colombia","lat":"4.4389","lng":"-75.2322"},{"city":"Ivanovo","country":"Russia","lat":"57.0100","lng":"41.0100"},{"city":"Erzurum","country":"Turkey","lat":"39.9204","lng":"41.2900"},{"city":"Akure","country":"Nigeria","lat":"7.2504","lng":"5.2000"},{"city":"Asyūţ","country":"Egypt","lat":"27.1900","lng":"31.1799"},{"city":"Kolwezi","country":"Congo (Kinshasa)","lat":"-10.7167","lng":"25.4724"},{"city":"Sukkur","country":"Pakistan","lat":"27.7136","lng":"68.8486"},{"city":"Luohe","country":"China","lat":"33.5700","lng":"114.0300"},{"city":"Campina Grande","country":"Brazil","lat":"-7.2300","lng":"-35.8800"},{"city":"Kitchener","country":"Canada","lat":"43.4500","lng":"-80.5000"},{"city":"Winston-Salem","country":"United States","lat":"36.1029","lng":"-80.2610"},{"city":"Middlesbrough","country":"United Kingdom","lat":"54.5804","lng":"-1.2300"},{"city":"Meizhou","country":"China","lat":"24.3005","lng":"116.1200"},{"city":"Ardabīl","country":"Iran","lat":"38.2500","lng":"48.3000"},{"city":"Magnitogorsk","country":"Russia","lat":"53.4227","lng":"58.9800"},{"city":"Gifu","country":"Japan","lat":"35.4231","lng":"136.7628"},{"city":"Huancayo","country":"Peru","lat":"-12.0800","lng":"-75.2000"},{"city":"Nha Trang","country":"Vietnam","lat":"12.2500","lng":"109.1700"},{"city":"Maturín","country":"Venezuela","lat":"9.7500","lng":"-63.1700"},{"city":"Zhangjiakou Shi Xuanhua Qu","country":"China","lat":"40.5944","lng":"115.0243"},{"city":"Kursk","country":"Russia","lat":"51.7400","lng":"36.1900"},{"city":"Oujda-Angad","country":"Morocco","lat":"34.6900","lng":"-1.9100"},{"city":"Metz","country":"France","lat":"49.1203","lng":"6.1800"},{"city":"Al ‘Ayn","country":"United Arab Emirates","lat":"24.2305","lng":"55.7400"},{"city":"Jeju","country":"Korea, South","lat":"33.5101","lng":"126.5219"},{"city":"Osogbo","country":"Nigeria","lat":"7.7704","lng":"4.5600"},{"city":"Indio","country":"United States","lat":"33.7346","lng":"-116.2346"},{"city":"Ipatinga","country":"Brazil","lat":"-19.4796","lng":"-42.5200"},{"city":"Szczecin","country":"Poland","lat":"53.4204","lng":"14.5300"},{"city":"Durham","country":"United States","lat":"35.9795","lng":"-78.9032"},{"city":"Syracuse","country":"United States","lat":"43.0409","lng":"-76.1438"},{"city":"Chattanooga","country":"United States","lat":"35.0657","lng":"-85.2487"},{"city":"Murcia","country":"Spain","lat":"37.9800","lng":"-1.1300"},{"city":"Ţanţā","country":"Egypt","lat":"30.7904","lng":"31.0000"},{"city":"Kitwe","country":"Zambia","lat":"-12.8100","lng":"28.2200"},{"city":"Lancaster","country":"United States","lat":"40.0420","lng":"-76.3012"},{"city":"Zanzibar","country":"Tanzania","lat":"-6.1600","lng":"39.2000"},{"city":"Taubaté","country":"Brazil","lat":"-23.0195","lng":"-45.5600"},{"city":"Ghulja","country":"China","lat":"43.9000","lng":"81.3500"},{"city":"Pasay City","country":"Philippines","lat":"14.5504","lng":"121.0000"},{"city":"Spokane","country":"United States","lat":"47.6671","lng":"-117.4330"},{"city":"Mbale","country":"Uganda","lat":"1.0904","lng":"34.1700"},{"city":"Palm Coast","country":"United States","lat":"29.5392","lng":"-81.2460"},{"city":"Kassala","country":"Sudan","lat":"15.4600","lng":"36.3900"},{"city":"Sunch’ŏn","country":"Korea, North","lat":"39.4236","lng":"125.9390"},{"city":"Tver’","country":"Russia","lat":"56.8600","lng":"35.8900"},{"city":"Sīkar","country":"India","lat":"27.6104","lng":"75.1400"},{"city":"Jiangjiafan","country":"China","lat":"31.0304","lng":"112.1000"},{"city":"Surgut","country":"Russia","lat":"61.2599","lng":"73.4250"},{"city":"Tumkūr","country":"India","lat":"13.3300","lng":"77.1000"},{"city":"Gómez Palacio","country":"Mexico","lat":"25.5701","lng":"-103.5000"},{"city":"Buraydah","country":"Saudi Arabia","lat":"26.3664","lng":"43.9628"},{"city":"Khmel’nyts’kyy","country":"Ukraine","lat":"49.4249","lng":"27.0015"},{"city":"Eindhoven","country":"Netherlands","lat":"51.4300","lng":"5.5000"},{"city":"Chiang Mai","country":"Thailand","lat":"18.8000","lng":"98.9800"},{"city":"Piura","country":"Peru","lat":"-5.2100","lng":"-80.6300"},{"city":"Horlivka","country":"Ukraine","lat":"48.2996","lng":"38.0547"},{"city":"Arlington","country":"United States","lat":"32.6998","lng":"-97.1251"},{"city":"Ndola","country":"Zambia","lat":"-12.9999","lng":"28.6500"},{"city":"Yuxi","country":"China","lat":"24.3800","lng":"102.5700"},{"city":"Bonita Springs","country":"United States","lat":"26.3559","lng":"-81.7861"},{"city":"Poughkeepsie","country":"United States","lat":"41.6949","lng":"-73.9210"},{"city":"Kisumu","country":"Kenya","lat":"-0.0900","lng":"34.7500"},{"city":"Stockton","country":"United States","lat":"37.9766","lng":"-121.3111"},{"city":"Quilon","country":"India","lat":"8.9004","lng":"76.5700"},{"city":"El Obeid","country":"Sudan","lat":"13.1833","lng":"30.2167"},{"city":"Nyala","country":"Sudan","lat":"12.0600","lng":"24.8900"},{"city":"Sandakan","country":"Malaysia","lat":"5.8430","lng":"118.1080"},{"city":"Ahmadnagar","country":"India","lat":"19.1104","lng":"74.7500"},{"city":"Osh","country":"Kyrgyzstan","lat":"40.5404","lng":"72.7900"},{"city":"Stoke-on-Trent","country":"United Kingdom","lat":"53.0004","lng":"-2.1800"},{"city":"Bhīlwāra","country":"India","lat":"25.3504","lng":"74.6350"},{"city":"Oxnard","country":"United States","lat":"34.1962","lng":"-119.1819"},{"city":"Comilla","country":"Bangladesh","lat":"23.4704","lng":"91.1700"},{"city":"Augusta","country":"United States","lat":"33.3645","lng":"-82.0708"},{"city":"Scranton","country":"United States","lat":"41.4044","lng":"-75.6649"},{"city":"Samut Prakan","country":"Thailand","lat":"13.6069","lng":"100.6115"},{"city":"Grenoble","country":"France","lat":"45.1804","lng":"5.7200"},{"city":"Nampula","country":"Mozambique","lat":"-15.1360","lng":"39.2930"},{"city":"Nizāmābād","country":"India","lat":"18.6704","lng":"78.1000"},{"city":"Granada","country":"Spain","lat":"37.1650","lng":"-3.5850"},{"city":"Brno","country":"Czechia","lat":"49.2004","lng":"16.6100"},{"city":"Coventry","country":"United Kingdom","lat":"52.4204","lng":"-1.5000"},{"city":"Alajuela","country":"Costa Rica","lat":"10.0200","lng":"-84.2300"},{"city":"Iloilo","country":"Philippines","lat":"10.7050","lng":"122.5450"},{"city":"Campos","country":"Brazil","lat":"-21.7500","lng":"-41.3200"},{"city":"Resistencia","country":"Argentina","lat":"-27.4600","lng":"-58.9900"},{"city":"Baicheng","country":"China","lat":"45.6200","lng":"122.8200"},{"city":"Qarshi","country":"Uzbekistan","lat":"38.8704","lng":"65.8000"},{"city":"Mişrātah","country":"Libya","lat":"32.3800","lng":"15.1000"},{"city":"Ḩā’il","country":"Saudi Arabia","lat":"27.5236","lng":"41.7001"},{"city":"Boise","country":"United States","lat":"43.6007","lng":"-116.2312"},{"city":"Bejaïa","country":"Algeria","lat":"36.7604","lng":"5.0700"},{"city":"Southampton","country":"United Kingdom","lat":"50.9000","lng":"-1.4000"},{"city":"Celaya","country":"Mexico","lat":"20.5300","lng":"-100.8000"},{"city":"Pasto","country":"Colombia","lat":"1.2136","lng":"-77.2811"},{"city":"Modesto","country":"United States","lat":"37.6374","lng":"-121.0028"},{"city":"Caxias do Sul","country":"Brazil","lat":"-29.1800","lng":"-51.1700"},{"city":"Nizhniy Tagil","country":"Russia","lat":"57.9200","lng":"59.9750"},{"city":"Xichang","country":"China","lat":"27.8800","lng":"102.3000"},{"city":"Dezhou","country":"China","lat":"37.4504","lng":"116.3000"},{"city":"Vigo","country":"Spain","lat":"42.2200","lng":"-8.7300"},{"city":"Las Palmas de Gran Canaria","country":"Spain","lat":"28.1000","lng":"-15.4300"},{"city":"Parbhani","country":"India","lat":"19.2704","lng":"76.7600"},{"city":"Karlsruhe","country":"Germany","lat":"49.0000","lng":"8.4000"},{"city":"Zhoukou","country":"China","lat":"33.6304","lng":"114.6300"},{"city":"Makiyivka","country":"Ukraine","lat":"48.0297","lng":"37.9746"},{"city":"Putian","country":"China","lat":"25.4303","lng":"119.0200"},{"city":"Kahramanmaraş","country":"Turkey","lat":"37.6100","lng":"36.9450"},{"city":"Manizales","country":"Colombia","lat":"5.0600","lng":"-75.5200"},{"city":"Palma","country":"Spain","lat":"39.5743","lng":"2.6542"},{"city":"Manukau City","country":"New Zealand","lat":"-37.0000","lng":"174.8850"},{"city":"Shillong","country":"India","lat":"25.5705","lng":"91.8800"},{"city":"Khorramābād","country":"Iran","lat":"33.4804","lng":"48.3500"},{"city":"Villavicencio","country":"Colombia","lat":"4.1533","lng":"-73.6350"},{"city":"São José do Rio Prêto","country":"Brazil","lat":"-20.7996","lng":"-49.3900"},{"city":"Kaunas","country":"Lithuania","lat":"54.9504","lng":"23.8800"},{"city":"Lātūr","country":"India","lat":"18.4004","lng":"76.5700"},{"city":"Kissimmee","country":"United States","lat":"28.3042","lng":"-81.4164"},{"city":"Youngstown","country":"United States","lat":"41.0993","lng":"-80.6463"},{"city":"Shache","country":"China","lat":"38.4261","lng":"77.2500"},{"city":"Seremban","country":"Malaysia","lat":"2.7105","lng":"101.9400"},{"city":"Denizli","country":"Turkey","lat":"37.7704","lng":"29.0800"},{"city":"Van","country":"Turkey","lat":"38.4954","lng":"43.4000"},{"city":"A Coruña","country":"Spain","lat":"43.3300","lng":"-8.4200"},{"city":"Madan","country":"Iran","lat":"30.3307","lng":"48.2797"},{"city":"Quzhou","country":"China","lat":"28.9704","lng":"118.8700"},{"city":"Rājapālaiyam","country":"India","lat":"9.4204","lng":"77.5800"},{"city":"Reading","country":"United Kingdom","lat":"51.4700","lng":"-0.9800"},{"city":"Najrān","country":"Saudi Arabia","lat":"17.5065","lng":"44.1316"},{"city":"Mahilyow","country":"Belarus","lat":"53.8985","lng":"30.3247"},{"city":"Al Qaţīf","country":"Saudi Arabia","lat":"26.5196","lng":"50.0115"},{"city":"Mazatlán","country":"Mexico","lat":"23.2211","lng":"-106.4200"},{"city":"Longyan","country":"China","lat":"25.1804","lng":"117.0300"},{"city":"Aurora","country":"United States","lat":"39.7084","lng":"-104.7274"},{"city":"Bydgoszcz","country":"Poland","lat":"53.1204","lng":"18.0100"},{"city":"Kuantan","country":"Malaysia","lat":"3.8300","lng":"103.3200"},{"city":"Gorontalo","country":"Indonesia","lat":"0.5500","lng":"123.0700"},{"city":"Nakuru","country":"Kenya","lat":"-0.2800","lng":"36.0700"},{"city":"Vladikavkaz","country":"Russia","lat":"43.0504","lng":"44.6700"},{"city":"Larkana","country":"Pakistan","lat":"27.5618","lng":"68.2068"},{"city":"Christchurch","country":"New Zealand","lat":"-43.5350","lng":"172.6300"},{"city":"Stavropol’","country":"Russia","lat":"45.0500","lng":"41.9800"},{"city":"Sanya","country":"China","lat":"18.2591","lng":"109.5040"},{"city":"Bhāgalpur","country":"India","lat":"25.2300","lng":"86.9800"},{"city":"Shekhupura","country":"Pakistan","lat":"31.7200","lng":"73.9900"},{"city":"Cusco","country":"Peru","lat":"-13.5250","lng":"-71.9722"},{"city":"Tamale","country":"Ghana","lat":"9.4004","lng":"-0.8400"},{"city":"Ulan-Ude","country":"Russia","lat":"51.8250","lng":"107.6250"},{"city":"Bobo-Dioulasso","country":"Burkina Faso","lat":"11.1800","lng":"-4.2900"},{"city":"Lublin","country":"Poland","lat":"51.2504","lng":"22.5727"},{"city":"Halifax","country":"Canada","lat":"44.6500","lng":"-63.6000"},{"city":"Augsburg","country":"Germany","lat":"48.3500","lng":"10.9000"},{"city":"Sungai Petani","country":"Malaysia","lat":"5.6497","lng":"100.4793"},{"city":"Ad Dīwānīyah","country":"Iraq","lat":"31.9889","lng":"44.9240"},{"city":"Taraz","country":"Kazakhstan","lat":"42.9000","lng":"71.3650"},{"city":"Toulon","country":"France","lat":"43.1342","lng":"5.9188"},{"city":"Zanjān","country":"Iran","lat":"36.6700","lng":"48.5000"},{"city":"Donostia","country":"Spain","lat":"43.3204","lng":"-1.9800"},{"city":"Iwaki","country":"Japan","lat":"37.0553","lng":"140.8900"},{"city":"Encarnación","country":"Paraguay","lat":"-27.3472","lng":"-55.8739"},{"city":"Posadas","country":"Argentina","lat":"-27.3578","lng":"-55.8851"},{"city":"Fuyu","country":"China","lat":"45.1804","lng":"124.8200"},{"city":"Cà Mau","country":"Vietnam","lat":"9.1774","lng":"105.1500"},{"city":"Asahikawa","country":"Japan","lat":"43.7550","lng":"142.3800"},{"city":"Mirpur Khas","country":"Pakistan","lat":"25.5318","lng":"69.0118"},{"city":"Arkhangel’sk","country":"Russia","lat":"64.5750","lng":"40.5450"},{"city":"Wafangdian","country":"China","lat":"39.6259","lng":"121.9960"},{"city":"Ambon","country":"Indonesia","lat":"-3.7167","lng":"128.2000"},{"city":"Orizaba","country":"Mexico","lat":"18.8500","lng":"-97.1300"},{"city":"Hongzhai","country":"China","lat":"35.0476","lng":"104.6394"},{"city":"Santiago del Estero","country":"Argentina","lat":"-27.7833","lng":"-64.2667"},{"city":"Mito","country":"Japan","lat":"36.3704","lng":"140.4800"},{"city":"Safi","country":"Morocco","lat":"32.3200","lng":"-9.2400"},{"city":"Eldoret","country":"Kenya","lat":"0.5200","lng":"35.2700"},{"city":"Rahimyar Khan","country":"Pakistan","lat":"28.4202","lng":"70.2952"},{"city":"Neiva","country":"Colombia","lat":"2.9310","lng":"-75.3302"},{"city":"Anaheim","country":"United States","lat":"33.8390","lng":"-117.8573"},