[{"city":"Tokyo","country":"Japan","lat":"35.6850","lng":"139.7514"},{"city":"New York","country":"United States","lat":"40.6943","lng":"-73.9249"},{"city":"Mexico City","country":"Mexico","lat":"19.4424","lng":"-99.1310"},{"city":"Mumbai","country":"India","lat":"19.0170","lng":"72.8570"},{"city":"São Paulo","country":"Brazil","lat":"-23.5587","lng":"-46.6250"},{"city":"Delhi","country":"India","lat":"28.6700","lng":"77.2300"},{"city":"Shanghai","country":"China","lat":"31.2165","lng":"121.4365"},{"city":"Kolkata","country":"India","lat":"22.4950","lng":"88.3247"},{"city":"Los Angeles","country":"United States","lat":"34.1139","lng":"-118.4068"},{"city":"Dhaka","country":"Bangladesh","lat":"23.7231","lng":"90.4086"},{"city":"Buenos Aires","country":"Argentina","lat":"-34.6025","lng":"-58.3975"},{"city":"Karachi","country":"Pakistan","lat":"24.8700","lng":"66.9900"},{"city":"Cairo","country":"Egypt","lat":"30.0500","lng":"31.2500"},{"city":"Rio de Janeiro","country":"Brazil","lat":"-22.9250","lng":"-43.2250"},{"city":"Ōsaka","country":"Japan","lat":"34.7500","lng":"135.4601"},{"city":"Beijing","country":"China","lat":"39.9289","lng":"116.3883"},{"city":"Manila","country":"Philippines","lat":"14.6042","lng":"120.9822"},{"city":"Moscow","country":"Russia","lat":"55.7522","lng":"37.6155"},{"city":"Istanbul","country":"Turkey","lat":"41.1050","lng":"29.0100"},{"city":"Paris","country":"France","lat":"48.8667","lng":"2.3333"},{"city":"Seoul","country":"Korea, South","lat":"37.5663","lng":"126.9997"},{"city":"Lagos","country":"Nigeria","lat":"6.4433","lng":"3.3915"},{"city":"Jakarta","country":"Indonesia","lat":"-6.1744","lng":"106.8294"},{"city":"Guangzhou","country":"China","lat":"23.1450","lng":"113.3250"},{"city":"Chicago","country":"United States","lat":"41.8373","lng":"-87.6862"},{"city":"London","country":"United Kingdom","lat":"51.5000","lng":"-0.1167"},{"city":"Lima","country":"Peru","lat":"-12.0480","lng":"-77.0501"},{"city":"Tehran","country":"Iran","lat":"35.6719","lng":"51.4243"},{"city":"Kinshasa","country":"Congo (Kinshasa)","lat":"-4.3297","lng":"15.3150"},{"city":"Bogotá","country":"Colombia","lat":"4.5964","lng":"-74.0833"},{"city":"Shenzhen","country":"China","lat":"22.5524","lng":"114.1221"},{"city":"Wuhan","country":"China","lat":"30.5800","lng":"114.2700"},{"city":"Hong Kong","country":"Hong Kong","lat":"22.3050","lng":"114.1850"},{"city":"Tianjin","country":"China","lat":"39.1300","lng":"117.2000"},{"city":"Chennai","country":"India","lat":"13.0900","lng":"80.2800"},{"city":"Taipei","country":"Taiwan","lat":"25.0358","lng":"121.5683"},{"city":"Bengalūru","country":"India","lat":"12.9700","lng":"77.5600"},{"city":"Bangkok","country":"Thailand","lat":"13.7500","lng":"100.5166"},{"city":"Lahore","country":"Pakistan","lat":"31.5600","lng":"74.3500"},{"city":"Chongqing","country":"China","lat":"29.5650","lng":"106.5950"},{"city":"Miami","country":"United States","lat":"25.7839","lng":"-80.2102"},{"city":"Hyderabad","country":"India","lat":"17.4000","lng":"78.4800"},{"city":"Dallas","country":"United States","lat":"32.7936","lng":"-96.7662"},{"city":"Santiago","country":"Chile","lat":"-33.4500","lng":"-70.6670"},{"city":"Philadelphia","country":"United States","lat":"40.0077","lng":"-75.1339"},{"city":"Belo Horizonte","country":"Brazil","lat":"-19.9150","lng":"-43.9150"},{"city":"Madrid","country":"Spain","lat":"40.4000","lng":"-3.6834"},{"city":"Houston","country":"United States","lat":"29.7869","lng":"-95.3905"},{"city":"Ahmadābād","country":"India","lat":"23.0301","lng":"72.5800"},{"city":"Ho Chi Minh City","country":"Vietnam","lat":"10.7800","lng":"106.6950"},{"city":"Washington","country":"United States","lat":"38.9047","lng":"-77.0163"},{"city":"Atlanta","country":"United States","lat":"33.7627","lng":"-84.4225"},{"city":"Toronto","country":"Canada","lat":"43.7000","lng":"-79.4200"},{"city":"Singapore","country":"Singapore","lat":"1.2930","lng":"103.8558"},{"city":"Luanda","country":"Angola","lat":"-8.8383","lng":"13.2344"},{"city":"Baghdad","country":"Iraq","lat":"33.3386","lng":"44.3939"},{"city":"Barcelona","country":"Spain","lat":"41.3833","lng":"2.1834"},{"city":"Hāora","country":"India","lat":"22.5804","lng":"88.3299"},{"city":"Shenyang","country":"China","lat":"41.8050","lng":"123.4500"},{"city":"Khartoum","country":"Sudan","lat":"15.5881","lng":"32.5342"},{"city":"Pune","country":"India","lat":"18.5300","lng":"73.8500"},{"city":"Boston","country":"United States","lat":"42.3188","lng":"-71.0846"},{"city":"Sydney","country":"Australia","lat":"-33.9200","lng":"151.1852"},{"city":"Saint Petersburg","country":"Russia","lat":"59.9390","lng":"30.3160"},{"city":"Chittagong","country":"Bangladesh","lat":"22.3300","lng":"91.8000"},{"city":"Dongguan","country":"China","lat":"23.0489","lng":"113.7447"},{"city":"Riyadh","country":"Saudi Arabia","lat":"24.6408","lng":"46.7727"},{"city":"Hanoi","country":"Vietnam","lat":"21.0333","lng":"105.8500"},{"city":"Guadalajara","country":"Mexico","lat":"20.6700","lng":"-103.3300"},{"city":"Melbourne","country":"Australia","lat":"-37.8200","lng":"144.9750"},{"city":"Alexandria","country":"Egypt","lat":"31.2000","lng":"29.9500"},{"city":"Chengdu","country":"China","lat":"30.6700","lng":"104.0700"},{"city":"Rangoon","country":"Burma","lat":"16.7834","lng":"96.1667"},{"city":"Phoenix","country":"United States","lat":"33.5722","lng":"-112.0891"},{"city":"Xi’an","country":"China","lat":"34.2750","lng":"108.8950"},{"city":"Porto Alegre","country":"Brazil","lat":"-30.0500","lng":"-51.2000"},{"city":"Sūrat","country":"India","lat":"21.2000","lng":"72.8400"},{"city":"Hechi","country":"China","lat":"23.0965","lng":"109.6091"},{"city":"Abidjan","country":"Côte D’Ivoire","lat":"5.3200","lng":"-4.0400"},{"city":"Brasília","country":"Brazil","lat":"-15.7833","lng":"-47.9161"},{"city":"Ankara","country":"Turkey","lat":"39.9272","lng":"32.8644"},{"city":"Monterrey","country":"Mexico","lat":"25.6700","lng":"-100.3300"},{"city":"Yokohama","country":"Japan","lat":"35.3200","lng":"139.5800"},{"city":"Nanjing","country":"China","lat":"32.0500","lng":"118.7800"},{"city":"Montréal","country":"Canada","lat":"45.5000","lng":"-73.5833"},{"city":"Guiyang","country":"China","lat":"26.5800","lng":"106.7200"},{"city":"Recife","country":"Brazil","lat":"-8.0756","lng":"-34.9156"},{"city":"Seattle","country":"United States","lat":"47.6211","lng":"-122.3244"},{"city":"Harbin","country":"China","lat":"45.7500","lng":"126.6500"},{"city":"San Francisco","country":"United States","lat":"37.7562","lng":"-122.4430"},{"city":"Fortaleza","country":"Brazil","lat":"-3.7500","lng":"-38.5800"},{"city":"Zhangzhou","country":"China","lat":"24.5204","lng":"117.6700"},{"city":"Detroit","country":"United States","lat":"42.3834","lng":"-83.1024"},{"city":"Salvador","country":"Brazil","lat":"-12.9700","lng":"-38.4800"},{"city":"Busan","country":"Korea, South","lat":"35.0951","lng":"129.0100"},{"city":"Johannesburg","country":"South Africa","lat":"-26.1700","lng":"28.0300"},{"city":"Berlin","country":"Germany","lat":"52.5218","lng":"13.4015"},{"city":"Algiers","country":"Algeria","lat":"36.7631","lng":"3.0506"},{"city":"Rome","country":"Italy","lat":"41.8960","lng":"12.4833"},{"city":"Pyongyang","country":"Korea, North","lat":"39.0194","lng":"125.7547"},{"city":"Medellín","country":"Colombia","lat":"6.2750","lng":"-75.5750"},{"city":"Kabul","country":"Afghanistan","lat":"34.5167","lng":"69.1833"},{"city":"Athens","country":"Greece","lat":"37.9833","lng":"23.7333"},{"city":"Nagoya","country":"Japan","lat":"35.1550","lng":"136.9150"},{"city":"Cape Town","country":"South Africa","lat":"-33.9200","lng":"18.4350"},{"city":"San Diego","country":"United States","lat":"32.8312","lng":"-117.1225"},{"city":"Changchun","country":"China","lat":"43.8650","lng":"125.3400"},{"city":"Casablanca","country":"Morocco","lat":"33.6000","lng":"-7.6164"},{"city":"Dalian","country":"China","lat":"38.9228","lng":"121.6298"},{"city":"Cawnpore","country":"India","lat":"26.4600","lng":"80.3200"},{"city":"Kano","country":"Nigeria","lat":"12.0000","lng":"8.5200"},{"city":"Tel Aviv-Yafo","country":"Israel","lat":"32.0800","lng":"34.7700"},{"city":"Addis Ababa","country":"Ethiopia","lat":"9.0333","lng":"38.7000"},{"city":"Curitiba","country":"Brazil","lat":"-25.4200","lng":"-49.3200"},{"city":"Zibo","country":"China","lat":"36.8000","lng":"118.0500"},{"city":"Jeddah","country":"Saudi Arabia","lat":"21.5169","lng":"39.2192"},{"city":"Nairobi","country":"Kenya","lat":"-1.2833","lng":"36.8167"},{"city":"Hangzhou","country":"China","lat":"30.2500","lng":"120.1700"},{"city":"Benoni","country":"South Africa","lat":"-26.1496","lng":"28.3299"},{"city":"Caracas","country":"Venezuela","lat":"10.5010","lng":"-66.9170"},{"city":"Milan","country":"Italy","lat":"45.4700","lng":"9.2050"},{"city":"Stuttgart","country":"Germany","lat":"48.7800","lng":"9.2000"},{"city":"Kunming","country":"China","lat":"25.0700","lng":"102.6800"},{"city":"Dar es Salaam","country":"Tanzania","lat":"-6.8000","lng":"39.2683"},{"city":"Minneapolis","country":"United States","lat":"44.9635","lng":"-93.2678"},{"city":"Jaipur","country":"India","lat":"26.9211","lng":"75.8100"},{"city":"Taiyuan","country":"China","lat":"37.8750","lng":"112.5451"},{"city":"Frankfurt","country":"Germany","lat":"50.1000","lng":"8.6750"},{"city":"Qingdao","country":"China","lat":"36.0900","lng":"120.3300"},{"city":"Surabaya","country":"Indonesia","lat":"-7.2492","lng":"112.7508"},{"city":"Lisbon","country":"Portugal","lat":"38.7227","lng":"-9.1449"},{"city":"Tampa","country":"United States","lat":"27.9942","lng":"-82.4451"},{"city":"Jinan","country":"China","lat":"36.6750","lng":"116.9950"},{"city":"Fukuoka","country":"Japan","lat":"33.5950","lng":"130.4100"},{"city":"Campinas","country":"Brazil","lat":"-22.9000","lng":"-47.1000"},{"city":"Denver","country":"United States","lat":"39.7621","lng":"-104.8759"},{"city":"Kaohsiung","country":"Taiwan","lat":"22.6333","lng":"120.2666"},{"city":"Quezon City","country":"Philippines","lat":"14.6504","lng":"121.0300"},{"city":"Katowice","country":"Poland","lat":"50.2604","lng":"19.0200"},{"city":"Aleppo","country":"Syria","lat":"36.2300","lng":"37.1700"},{"city":"Durban","country":"South Africa","lat":"-29.8650","lng":"30.9800"},{"city":"Kyiv","country":"Ukraine","lat":"50.4334","lng":"30.5166"},{"city":"Lucknow","country":"India","lat":"26.8550","lng":"80.9150"},{"city":"Giza","country":"Egypt","lat":"30.0100","lng":"31.1900"},{"city":"Zhengzhou","country":"China","lat":"34.7550","lng":"113.6651"},{"city":"Taichung","country":"Taiwan","lat":"24.1521","lng":"120.6817"},{"city":"Brooklyn","country":"United States","lat":"40.6501","lng":"-73.9496"},{"city":"Ibadan","country":"Nigeria","lat":"7.3800","lng":"3.9300"},{"city":"Faisalabad","country":"Pakistan","lat":"31.4100","lng":"73.1100"},{"city":"Fuzhou","country":"China","lat":"26.0800","lng":"119.3000"},{"city":"Changsha","country":"China","lat":"28.2000","lng":"112.9700"},{"city":"Dakar","country":"Senegal","lat":"14.7158","lng":"-17.4731"},{"city":"İzmir","country":"Turkey","lat":"38.4361","lng":"27.1518"},{"city":"Xiangtan","country":"China","lat":"27.8504","lng":"112.9000"},{"city":"Lanzhou","country":"China","lat":"36.0560","lng":"103.7920"},{"city":"Incheon","country":"Korea, South","lat":"37.4761","lng":"126.6422"},{"city":"Sapporo","country":"Japan","lat":"43.0750","lng":"141.3400"},{"city":"Xiamen","country":"China","lat":"24.4500","lng":"118.0800"},{"city":"Guayaquil","country":"Ecuador","lat":"-2.2200","lng":"-79.9200"},{"city":"George Town","country":"Malaysia","lat":"5.4136","lng":"100.3294"},{"city":"Mashhad","country":"Iran","lat":"36.2700","lng":"59.5700"},{"city":"Damascus","country":"Syria","lat":"33.5000","lng":"36.3000"},{"city":"Daegu","country":"Korea, South","lat":"35.8668","lng":"128.6070"},{"city":"Nāgpur","country":"India","lat":"21.1700","lng":"79.0900"},{"city":"Lianshan","country":"China","lat":"40.7503","lng":"120.8300"},{"city":"Shijiazhuang","country":"China","lat":"38.0500","lng":"114.4800"},{"city":"Tunis","country":"Tunisia","lat":"36.8028","lng":"10.1797"},{"city":"Vienna","country":"Austria","lat":"48.2000","lng":"16.3666"},{"city":"Jilin","country":"China","lat":"43.8500","lng":"126.5500"},{"city":"Omdurman","country":"Sudan","lat":"15.6167","lng":"32.4800"},{"city":"Bandung","country":"Indonesia","lat":"-6.9500","lng":"107.5700"},{"city":"Bekasi","country":"Indonesia","lat":"-6.2173","lng":"106.9723"},{"city":"Mannheim","country":"Germany","lat":"49.5004","lng":"8.4700"},{"city":"Nanchang","country":"China","lat":"28.6800","lng":"115.8800"},{"city":"Wenzhou","country":"China","lat":"28.0200","lng":"120.6501"},{"city":"Queens","country":"United States","lat":"40.7498","lng":"-73.7976"},{"city":"Vancouver","country":"Canada","lat":"49.2734","lng":"-123.1216"},{"city":"Birmingham","country":"United Kingdom","lat":"52.4750","lng":"-1.9200"},{"city":"Cali","country":"Colombia","lat":"3.4000","lng":"-76.5000"},{"city":"Naples","country":"Italy","lat":"40.8400","lng":"14.2450"},{"city":"Sendai","country":"Japan","lat":"38.2871","lng":"141.0217"},{"city":"Manchester","country":"United Kingdom","lat":"53.5004","lng":"-2.2480"},{"city":"Puebla","country":"Mexico","lat":"19.0500","lng":"-98.2000"},{"city":"Tripoli","country":"Libya","lat":"32.8925","lng":"13.1800"},{"city":"Tashkent","country":"Uzbekistan","lat":"41.3117","lng":"69.2949"},{"city":"Havana","country":"Cuba","lat":"23.1320","lng":"-82.3642"},{"city":"Gaoping","country":"China","lat":"30.7804","lng":"106.1300"},{"city":"Baltimore","country":"United States","lat":"39.3051","lng":"-76.6144"},{"city":"Nanning","country":"China","lat":"22.8200","lng":"108.3200"},{"city":"Belém","country":"Brazil","lat":"-1.4500","lng":"-48.4800"},{"city":"Patna","country":"India","lat":"25.6250","lng":"85.1300"},{"city":"Santo Domingo","country":"Dominican Republic","lat":"18.4701","lng":"-69.9001"},{"city":"Ürümqi","country":"China","lat":"43.8050","lng":"87.5750"},{"city":"Zaozhuang","country":"China","lat":"34.8800","lng":"117.5700"},{"city":"Baku","country":"Azerbaijan","lat":"40.3953","lng":"49.8622"},{"city":"Accra","country":"Ghana","lat":"5.5500","lng":"-0.2167"},{"city":"Yantai","country":"China","lat":"37.5304","lng":"121.4000"},{"city":"Medan","country":"Indonesia","lat":"3.5800","lng":"98.6500"},{"city":"Santa Cruz","country":"Bolivia","lat":"-17.7539","lng":"-63.2260"},{"city":"Tongshan","country":"China","lat":"34.2800","lng":"117.1800"},{"city":"Riverside","country":"United States","lat":"33.9381","lng":"-117.3948"},{"city":"Linyi","country":"China","lat":"35.0800","lng":"118.3300"},{"city":"St. Louis","country":"United States","lat":"38.6358","lng":"-90.2451"},{"city":"Las Vegas","country":"United States","lat":"36.2333","lng":"-115.2654"},{"city":"Maracaibo","country":"Venezuela","lat":"10.7300","lng":"-71.6600"},{"city":"Kuwait City","country":"Kuwait","lat":"29.3697","lng":"47.9783"},{"city":"Ad Dammām","country":"Saudi Arabia","lat":"26.4282","lng":"50.0997"},{"city":"Portland","country":"United States","lat":"45.5371","lng":"-122.6500"},{"city":"Haikou","country":"China","lat":"20.0500","lng":"110.3200"},{"city":"Hiroshima","country":"Japan","lat":"34.3878","lng":"132.4429"},{"city":"Baotou","country":"China","lat":"40.6522","lng":"109.8220"},{"city":"Hefei","country":"China","lat":"31.8500","lng":"117.2800"},{"city":"Indore","country":"India","lat":"22.7151","lng":"75.8650"},{"city":"Goiânia","country":"Brazil","lat":"-16.7200","lng":"-49.3000"},{"city":"Sanaa","country":"Yemen","lat":"15.3547","lng":"44.2066"},{"city":"San Antonio","country":"United States","lat":"29.4658","lng":"-98.5254"},{"city":"Port-au-Prince","country":"Haiti","lat":"18.5410","lng":"-72.3360"},{"city":"Haiphong","country":"Vietnam","lat":"20.8300","lng":"106.6801"},{"city":"Suzhou","country":"China","lat":"33.6361","lng":"116.9789"},{"city":"Nanyang","country":"China","lat":"33.0004","lng":"112.5300"},{"city":"Bucharest","country":"Romania","lat":"44.4334","lng":"26.0999"},{"city":"Ningbo","country":"China","lat":"29.8800","lng":"121.5500"},{"city":"Douala","country":"Cameroon","lat":"4.0604","lng":"9.7100"},{"city":"Tangshan","country":"China","lat":"39.6243","lng":"118.1944"},{"city":"Tainan","country":"Taiwan","lat":"23.0000","lng":"120.2000"},{"city":"Xiping","country":"China","lat":"40.0800","lng":"113.3000"},{"city":"Asunción","country":"Paraguay","lat":"-25.2964","lng":"-57.6415"},{"city":"Saidu Sharif","country":"Pakistan","lat":"34.7500","lng":"72.3500"},{"city":"Brisbane","country":"Australia","lat":"-27.4550","lng":"153.0351"},{"city":"Rawalpindi","country":"Pakistan","lat":"33.6000","lng":"73.0400"},{"city":"Sacramento","country":"United States","lat":"38.5667","lng":"-121.4683"},{"city":"Beirut","country":"Lebanon","lat":"33.8720","lng":"35.5097"},{"city":"San Jose","country":"United States","lat":"37.3021","lng":"-121.8489"},{"city":"Minsk","country":"Belarus","lat":"53.9000","lng":"27.5666"},{"city":"Kyōto","country":"Japan","lat":"35.0300","lng":"135.7500"},{"city":"Barranquilla","country":"Colombia","lat":"10.9600","lng":"-74.8000"},{"city":"Orlando","country":"United States","lat":"28.4772","lng":"-81.3369"},{"city":"Shuyangzha","country":"China","lat":"34.1299","lng":"118.7734"},{"city":"Valencia","country":"Venezuela","lat":"10.2300","lng":"-67.9800"},{"city":"Hamburg","country":"Germany","lat":"53.5500","lng":"10.0000"},{"city":"Vadodara","country":"India","lat":"22.3100","lng":"73.1800"},{"city":"Manaus","country":"Brazil","lat":"-3.1000","lng":"-60.0000"},{"city":"Shangqiu","country":"China","lat":"34.4504","lng":"115.6500"},{"city":"Wuxi","country":"China","lat":"31.5800","lng":"120.3000"},{"city":"Palembang","country":"Indonesia","lat":"-2.9800","lng":"104.7500"},{"city":"Brussels","country":"Belgium","lat":"50.8333","lng":"4.3333"},{"city":"Essen","country":"Germany","lat":"51.4500","lng":"7.0166"},{"city":"Cleveland","country":"United States","lat":"41.4767","lng":"-81.6805"},{"city":"Bhopal","country":"India","lat":"23.2500","lng":"77.4100"},{"city":"Hohhot","country":"China","lat":"40.8200","lng":"111.6600"},{"city":"Pittsburgh","country":"United States","lat":"40.4396","lng":"-79.9763"},{"city":"Luoyang","country":"China","lat":"34.6800","lng":"112.4701"},{"city":"Santos","country":"Brazil","lat":"-23.9537","lng":"-46.3329"},{"city":"Jingling","country":"China","lat":"30.6501","lng":"113.1600"},{"city":"Warsaw","country":"Poland","lat":"52.2500","lng":"21.0000"},{"city":"Rabat","country":"Morocco","lat":"34.0253","lng":"-6.8361"},{"city":"Vitória","country":"Brazil","lat":"-20.3240","lng":"-40.3660"},{"city":"Quito","country":"Ecuador","lat":"-0.2150","lng":"-78.5001"},{"city":"Antananarivo","country":"Madagascar","lat":"-18.9166","lng":"47.5166"},{"city":"Coimbatore","country":"India","lat":"11.0000","lng":"76.9500"},{"city":"Daqing","country":"China","lat":"46.5800","lng":"125.0000"},{"city":"Lu’an","country":"China","lat":"31.7503","lng":"116.4800"},{"city":"Sanzhou","country":"China","lat":"30.8200","lng":"108.4000"},{"city":"Budapest","country":"Hungary","lat":"47.5000","lng":"19.0833"},{"city":"Turin","country":"Italy","lat":"45.0704","lng":"7.6700"},{"city":"Suzhou","country":"China","lat":"31.3005","lng":"120.6200"},{"city":"Ludhiāna","country":"India","lat":"30.9278","lng":"75.8723"},{"city":"Cincinnati","country":"United States","lat":"39.1412","lng":"-84.5060"},{"city":"Kumasi","country":"Ghana","lat":"6.6900","lng":"-1.6300"},{"city":"Manhattan","country":"United States","lat":"40.7834","lng":"-73.9662"},{"city":"Qiqihar","country":"China","lat":"47.3450","lng":"123.9900"},{"city":"Anshan","country":"China","lat":"41.1150","lng":"122.9400"},{"city":"Austin","country":"United States","lat":"30.3006","lng":"-97.7517"},{"city":"Zhongli","country":"Taiwan","lat":"24.9650","lng":"121.2168"},{"city":"Handan","country":"China","lat":"36.5800","lng":"114.4800"},{"city":"Tai’an","country":"China","lat":"36.2000","lng":"117.1201"},{"city":"Eşfahān","country":"Iran","lat":"32.7000","lng":"51.7000"},{"city":"Kansas City","country":"United States","lat":"39.1239","lng":"-94.5541"},{"city":"Yaoundé","country":"Cameroon","lat":"3.8667","lng":"11.5167"},{"city":"Shantou","country":"China","lat":"23.3700","lng":"116.6700"},{"city":"Āgra","country":"India","lat":"27.1704","lng":"78.0150"},{"city":"Zhanjiang","country":"China","lat":"21.2000","lng":"110.3800"},{"city":"La Paz","country":"Bolivia","lat":"-16.4980","lng":"-68.1500"},{"city":"Kalyān","country":"India","lat":"19.2502","lng":"73.1602"},{"city":"Abuja","country":"Nigeria","lat":"9.0833","lng":"7.5333"},{"city":"Harare","country":"Zimbabwe","lat":"-17.8178","lng":"31.0447"},{"city":"Indianapolis","country":"United States","lat":"39.7771","lng":"-86.1458"},{"city":"Xiantao","country":"China","lat":"30.3704","lng":"113.4400"},{"city":"Khulna","country":"Bangladesh","lat":"22.8400","lng":"89.5600"},{"city":"Weifang","country":"China","lat":"36.7204","lng":"119.1001"},{"city":"Tijuana","country":"Mexico","lat":"32.5000","lng":"-117.0800"},{"city":"Santiago","country":"Dominican Republic","lat":"19.5000","lng":"-70.6700"},{"city":"Xinyang","country":"China","lat":"32.1304","lng":"114.0700"},{"city":"Luzhou","country":"China","lat":"28.8800","lng":"105.3800"},{"city":"Perth","country":"Australia","lat":"-31.9550","lng":"115.8400"},{"city":"Toluca","country":"Mexico","lat":"19.3304","lng":"-99.6700"},{"city":"Vishākhapatnam","country":"India","lat":"17.7300","lng":"83.3050"},{"city":"Leeds","country":"United Kingdom","lat":"53.8300","lng":"-1.5800"},{"city":"Kōbe","country":"Japan","lat":"34.6800","lng":"135.1700"},{"city":"Columbus","country":"United States","lat":"39.9860","lng":"-82.9851"},{"city":"Multan","country":"Pakistan","lat":"30.2000","lng":"71.4550"},{"city":"Kochi","country":"India","lat":"10.0150","lng":"76.2239"},{"city":"Montevideo","country":"Uruguay","lat":"-34.8580","lng":"-56.1711"},{"city":"Gujranwala","country":"Pakistan","lat":"32.1604","lng":"74.1850"},{"city":"Niterói","country":"Brazil","lat":"-22.9000","lng":"-43.1000"},{"city":"Ganzhou","country":"China","lat":"25.9200","lng":"114.9500"},{"city":"Florence","country":"Italy","lat":"43.7800","lng":"11.2500"},{"city":"Liuzhou","country":"China","lat":"24.2800","lng":"109.2500"},{"city":"Bamako","country":"Mali","lat":"12.6500","lng":"-8.0000"},{"city":"Conakry","country":"Guinea","lat":"9.5315","lng":"-13.6802"},{"city":"Bursa","country":"Turkey","lat":"40.2000","lng":"29.0700"},{"city":"León de los Aldama","country":"Mexico","lat":"21.1500","lng":"-101.7000"},{"city":"Virginia Beach","country":"United States","lat":"36.7335","lng":"-76.0435"},{"city":"Nāsik","country":"India","lat":"20.0004","lng":"73.7800"},{"city":"Fushun","country":"China","lat":"41.8654","lng":"123.8700"},{"city":"Changde","country":"China","lat":"29.0300","lng":"111.6800"},{"city":"Daejeon","country":"Korea, South","lat":"36.3355","lng":"127.4250"},{"city":"Charlotte","country":"United States","lat":"35.2079","lng":"-80.8304"},{"city":"Phnom Penh","country":"Cambodia","lat":"11.5500","lng":"104.9166"},{"city":"Neijiang","country":"China","lat":"29.5804","lng":"105.0500"},{"city":"Quanzhou","country":"China","lat":"24.9000","lng":"118.5800"},{"city":"Kharkiv","country":"Ukraine","lat":"50.0000","lng":"36.2500"},{"city":"Hyderabad City","country":"Pakistan","lat":"25.3800","lng":"68.3750"},{"city":"Bronx","country":"United States","lat":"40.8501","lng":"-73.8662"},{"city":"Lomé","country":"Togo","lat":"6.1319","lng":"1.2228"},{"city":"Córdoba","country":"Argentina","lat":"-31.4000","lng":"-64.1823"},{"city":"Huainan","country":"China","lat":"32.6300","lng":"116.9800"},{"city":"Doha","country":"Qatar","lat":"25.2866","lng":"51.5330"},{"city":"Kuala Lumpur","country":"Malaysia","lat":"3.1667","lng":"101.7000"},{"city":"Maputo","country":"Mozambique","lat":"-25.9553","lng":"32.5892"},{"city":"Kaduna","country":"Nigeria","lat":"10.5200","lng":"7.4400"},{"city":"Gwangju","country":"Korea, South","lat":"35.1710","lng":"126.9104"},{"city":"Kawanakajima","country":"Japan","lat":"35.5300","lng":"139.7050"},{"city":"San Salvador","country":"El Salvador","lat":"13.7100","lng":"-89.2030"},{"city":"Suining","country":"China","lat":"30.5333","lng":"105.5333"},{"city":"Lyon","country":"France","lat":"45.7700","lng":"4.8300"},{"city":"Karaj","country":"Iran","lat":"35.8004","lng":"50.9700"},{"city":"Kampala","country":"Uganda","lat":"0.3167","lng":"32.5833"},{"city":"Tabrīz","country":"Iran","lat":"38.0863","lng":"46.3012"},{"city":"The Hague","country":"Netherlands","lat":"52.0800","lng":"4.2700"},{"city":"Davao","country":"Philippines","lat":"7.1100","lng":"125.6300"},{"city":"Marseille","country":"France","lat":"43.2900","lng":"5.3750"},{"city":"Meerut","country":"India","lat":"29.0004","lng":"77.7000"},{"city":"Mianyang","country":"China","lat":"31.4700","lng":"104.7700"},{"city":"Semarang","country":"Indonesia","lat":"-6.9666","lng":"110.4200"},{"city":"Farīdābād","country":"India","lat":"28.4333","lng":"77.3167"},{"city":"Novosibirsk","country":"Russia","lat":"55.0300","lng":"82.9600"},{"city":"Mecca","country":"Saudi Arabia","lat":"21.4300","lng":"39.8200"},{"city":"Dubai","country":"United Arab Emirates","lat":"25.2300","lng":"55.2800"},{"city":"Milwaukee","country":"United States","lat":"43.0642","lng":"-87.9673"},{"city":"Auckland","country":"New Zealand","lat":"-36.8481","lng":"174.7630"},{"city":"Ma’anshan","country":"China","lat":"31.7304","lng":"118.4800"},{"city":"Brazzaville","country":"Congo (Brazzaville)","lat":"-4.2592","lng":"15.2847"},{"city":"Yiyang","country":"China","lat":"28.6004","lng":"112.3300"},{"city":"Vārānasi","country":"India","lat":"25.3300","lng":"83.0000"},{"city":"Lubumbashi","country":"Congo (Kinshasa)","lat":"-11.6800","lng":"27.4800"},{"city":"Juárez","country":"Mexico","lat":"31.6904","lng":"-106.4900"},{"city":"Ghāziābād","country":"India","lat":"28.6604","lng":"77.4084"},{"city":"Pretoria","country":"South Africa","lat":"-25.7069","lng":"28.2294"},{"city":"Heze","country":"China","lat":"35.2300","lng":"115.4500"},{"city":"Porto","country":"Portugal","lat":"41.1500","lng":"-8.6200"},{"city":"Āsansol","country":"India","lat":"23.6833","lng":"86.9833"},{"city":"Lusaka","country":"Zambia","lat":"-15.4166","lng":"28.2833"},{"city":"Changzhou","country":"China","lat":"31.7800","lng":"119.9700"},{"city":"Mosul","country":"Iraq","lat":"36.3450","lng":"43.1450"},{"city":"Yekaterinburg","country":"Russia","lat":"56.8500","lng":"60.6000"},{"city":"Peshawar","country":"Pakistan","lat":"34.0050","lng":"71.5350"},{"city":"Mandalay","country":"Burma","lat":"21.9700","lng":"96.0850"},{"city":"Jamshedpur","country":"India","lat":"22.7875","lng":"86.1975"},{"city":"Mbuji-Mayi","country":"Congo (Kinshasa)","lat":"-6.1500","lng":"23.6000"},{"city":"Madura","country":"India","lat":"9.9200","lng":"78.1200"},{"city":"Adana","country":"Turkey","lat":"36.9950","lng":"35.3200"},{"city":"Sheffield","country":"United Kingdom","lat":"53.3667","lng":"-1.5000"},{"city":"Jabalpur","country":"India","lat":"23.1751","lng":"79.9551"},{"city":"San José","country":"Costa Rica","lat":"9.9350","lng":"-84.0841"},{"city":"Panama City","country":"Panama","lat":"8.9680","lng":"-79.5330"},{"city":"Nizhniy Novgorod","country":"Russia","lat":"56.3330","lng":"44.0001"},{"city":"Chifeng","country":"China","lat":"42.2700","lng":"118.9500"},{"city":"Duisburg","country":"Germany","lat":"51.4300","lng":"6.7500"},{"city":"Munich","country":"Germany","lat":"48.1299","lng":"11.5750"},{"city":"Huaiyin","country":"China","lat":"33.5800","lng":"119.0300"},{"city":"Stockholm","country":"Sweden","lat":"59.3508","lng":"18.0973"},{"city":"Makassar","country":"Indonesia","lat":"-5.1400","lng":"119.4320"},{"city":"Rājkot","country":"India","lat":"22.3100","lng":"70.8000"},{"city":"Dhanbād","country":"India","lat":"23.8004","lng":"86.4200"},{"city":"Mudanjiang","country":"China","lat":"44.5750","lng":"129.5900"},{"city":"Geneva","country":"Switzerland","lat":"46.2100","lng":"6.1400"},{"city":"Shīrāz","country":"Iran","lat":"29.6300","lng":"52.5700"},{"city":"Huzhou","country":"China","lat":"30.8704","lng":"120.1000"},{"city":"Beidao","country":"China","lat":"34.6000","lng":"105.9200"},{"city":"Shuangshui","country":"China","lat":"26.5944","lng":"104.8333"},{"city":"Düsseldorf","country":"Germany","lat":"51.2204","lng":"6.7800"},{"city":"Gaozhou","country":"China","lat":"21.9204","lng":"110.8700"},{"city":"Sevilla","country":"Spain","lat":"37.4050","lng":"-5.9800"},{"city":"Amritsar","country":"India","lat":"31.6400","lng":"74.8700"},{"city":"Vila Velha","country":"Brazil","lat":"-20.3676","lng":"-40.3180"},{"city":"Vila Velha","country":"Brazil","lat":"3.2167","lng":"-51.2167"},{"city":"Almaty","country":"Kazakhstan","lat":"43.3250","lng":"76.9150"},{"city":"Providence","country":"United States","lat":"41.8230","lng":"-71.4187"},{"city":"Warangal","country":"India","lat":"18.0100","lng":"79.5800"},{"city":"Rosario","country":"Argentina","lat":"-32.9511","lng":"-60.6663"},{"city":"Allahābād","country":"India","lat":"25.4550","lng":"81.8400"},{"city":"Benin City","country":"Nigeria","lat":"6.3405","lng":"5.6200"},{"city":"Jining","country":"China","lat":"35.4004","lng":"116.5500"},{"city":"Maceió","country":"Brazil","lat":"-9.6200","lng":"-35.7300"},{"city":"Sofia","country":"Bulgaria","lat":"42.6833","lng":"23.3167"},{"city":"Abbottabad","country":"Pakistan","lat":"34.1495","lng":"73.1995"},{"city":"Benghazi","country":"Libya","lat":"32.1167","lng":"20.0667"},{"city":"Cilacap","country":"Indonesia","lat":"-7.7188","lng":"109.0154"},{"city":"Prague","country":"Czechia","lat":"50.0833","lng":"14.4660"},{"city":"Glasgow","country":"United Kingdom","lat":"55.8744","lng":"-4.2507"},{"city":"Leshan","country":"China","lat":"29.5671","lng":"103.7333"},{"city":"Jacksonville","country":"United States","lat":"30.3322","lng":"-81.6749"},{"city":"Ouagadougou","country":"Burkina Faso","lat":"12.3703","lng":"-1.5247"},{"city":"Ottawa","country":"Canada","lat":"45.4167","lng":"-75.7000"},{"city":"Adelaide","country":"Australia","lat":"-34.9350","lng":"138.6000"},{"city":"Shangrao","country":"China","lat":"28.4704","lng":"117.9700"},{"city":"Torreón","country":"Mexico","lat":"25.5701","lng":"-103.4200"},{"city":"Srīnagar","country":"India","lat":"34.1000","lng":"74.8150"},{"city":"Bezwāda","country":"India","lat":"16.5200","lng":"80.6300"},{"city":"Samara","country":"Russia","lat":"53.1950","lng":"50.1513"},{"city":"Omsk","country":"Russia","lat":"54.9900","lng":"73.4000"},{"city":"Newcastle","country":"Australia","lat":"-32.8453","lng":"151.8150"},{"city":"Yulin","country":"China","lat":"22.6300","lng":"110.1500"},{"city":"Namp’o","country":"Korea, North","lat":"38.7669","lng":"125.4524"},{"city":"Xianyang","country":"China","lat":"34.3456","lng":"108.7147"},{"city":"Cagayan de Oro","country":"Philippines","lat":"8.4508","lng":"124.6853"},{"city":"Cần Thơ","country":"Vietnam","lat":"10.0500","lng":"105.7700"},{"city":"Barquisimeto","country":"Venezuela","lat":"10.0500","lng":"-69.3000"},{"city":"Helsinki","country":"Finland","lat":"60.1756","lng":"24.9341"},{"city":"Kazan’","country":"Russia","lat":"55.7499","lng":"49.1263"},{"city":"Aurangābād","country":"India","lat":"19.8957","lng":"75.3203"},{"city":"Calgary","country":"Canada","lat":"51.0830","lng":"-114.0800"},{"city":"Ciudad Nezahualcóyotl","country":"Mexico","lat":"19.4100","lng":"-99.0300"},{"city":"Zürich","country":"Switzerland","lat":"47.3800","lng":"8.5500"},{"city":"Baoding","country":"China","lat":"38.8704","lng":"115.4800"},{"city":"Zigong","country":"China","lat":"29.4000","lng":"104.7800"},{"city":"Sharjah","country":"United Arab Emirates","lat":"25.3714","lng":"55.4065"},{"city":"Yerevan","country":"Armenia","lat":"40.1812","lng":"44.5136"},{"city":"Mogadishu","country":"Somalia","lat":"2.0667","lng":"45.3667"},{"city":"Tbilisi","country":"Georgia","lat":"41.7250","lng":"44.7908"},{"city":"Ankang","country":"China","lat":"32.6800","lng":"109.0200"},{"city":"Huambo","country":"Angola","lat":"-12.7500","lng":"15.7600"},{"city":"Ikare","country":"Nigeria","lat":"7.5304","lng":"5.7600"},{"city":"Belgrade","country":"Serbia","lat":"44.8186","lng":"20.4680"},{"city":"Salt Lake City","country":"United States","lat":"40.7774","lng":"-111.9300"},{"city":"Bhilai","country":"India","lat":"21.2167","lng":"81.4333"},{"city":"Jinhua","country":"China","lat":"29.1200","lng":"119.6500"},{"city":"Chelyabinsk","country":"Russia","lat":"55.1550","lng":"61.4387"},{"city":"Natal","country":"Brazil","lat":"-5.7800","lng":"-35.2400"},{"city":"Dushanbe","country":"Tajikistan","lat":"38.5600","lng":"68.7739"},{"city":"Copenhagen","country":"Denmark","lat":"55.6786","lng":"12.5635"},{"city":"Changwon","country":"Korea, South","lat":"35.2191","lng":"128.5836"},{"city":"Zhuzhou","country":"China","lat":"27.8300","lng":"113.1500"},{"city":"Suwon","country":"Korea, South","lat":"37.2578","lng":"127.0109"},{"city":"Nashville","country":"United States","lat":"36.1715","lng":"-86.7843"},{"city":"Vereeniging","country":"South Africa","lat":"-26.6496","lng":"27.9600"},{"city":"Xiangyang","country":"China","lat":"32.0200","lng":"112.1300"},{"city":"Memphis","country":"United States","lat":"35.1046","lng":"-89.9773"},{"city":"Ulsan","country":"Korea, South","lat":"35.5467","lng":"129.3170"},{"city":"Amman","country":"Jordan","lat":"31.9500","lng":"35.9333"},{"city":"Mizhou","country":"China","lat":"35.9900","lng":"119.3801"},{"city":"Richmond","country":"United States","lat":"37.5295","lng":"-77.4756"},{"city":"Dublin","country":"Ireland","lat":"53.3331","lng":"-6.2489"},{"city":"Edmonton","country":"Canada","lat":"53.5500","lng":"-113.5000"},{"city":"Solāpur","country":"India","lat":"17.6704","lng":"75.9000"},{"city":"Rostov-na-Donu","country":"Russia","lat":"47.2346","lng":"39.7127"},{"city":"Dnipro","country":"Ukraine","lat":"48.4800","lng":"35.0000"},{"city":"Xining","country":"China","lat":"36.6200","lng":"101.7700"},{"city":"Zhangjiakou","country":"China","lat":"40.8300","lng":"114.9300"},{"city":"Lille","country":"France","lat":"50.6500","lng":"3.0800"},{"city":"Ranchi","country":"India","lat":"23.3700","lng":"85.3300"},{"city":"Gaziantep","country":"Turkey","lat":"37.0750","lng":"37.3850"},{"city":"Monrovia","country":"Liberia","lat":"6.3106","lng":"-10.8048"},{"city":"São Luís","country":"Brazil","lat":"-2.5160","lng":"-44.2660"},{"city":"Amsterdam","country":"Netherlands","lat":"52.3500","lng":"4.9166"},{"city":"Jerusalem","country":"Israel","lat":"31.7784","lng":"35.2066"},{"city":"New Orleans","country":"United States","lat":"30.0687","lng":"-89.9288"},{"city":"Guatemala City","country":"Guatemala","lat":"14.6211","lng":"-90.5270"},{"city":"Zhuhai","country":"China","lat":"22.2769","lng":"113.5678"},{"city":"Florianópolis","country":"Brazil","lat":"-27.5800","lng":"-48.5200"},{"city":"Port Elizabeth","country":"South Africa","lat":"-33.9700","lng":"25.6000"},{"city":"Jiamusi","country":"China","lat":"46.8300","lng":"130.3500"},{"city":"Port Harcourt","country":"Nigeria","lat":"4.8100","lng":"7.0100"},{"city":"Raleigh","country":"United States","lat":"35.8324","lng":"-78.6438"},{"city":"Ufa","country":"Russia","lat":"54.7900","lng":"56.0400"},{"city":"Hengyang","country":"China","lat":"26.8800","lng":"112.5900"},{"city":"Benxi","country":"China","lat":"41.3304","lng":"123.7500"},{"city":"Louisville","country":"United States","lat":"38.1663","lng":"-85.6485"},{"city":"Haifa","country":"Israel","lat":"32.8204","lng":"34.9800"},{"city":"Medina","country":"Saudi Arabia","lat":"24.5000","lng":"39.5800"},{"city":"Bucaramanga","country":"Colombia","lat":"7.1301","lng":"-73.1259"},{"city":"Maracay","country":"Venezuela","lat":"10.2469","lng":"-67.5958"},{"city":"Rotterdam","country":"Netherlands","lat":"51.9200","lng":"4.4800"},{"city":"Homs","country":"Syria","lat":"34.7300","lng":"36.7200"},{"city":"Cologne","country":"Germany","lat":"50.9300","lng":"6.9500"},{"city":"Qinhuangdao","country":"China","lat":"39.9304","lng":"119.6200"},{"city":"Fès","country":"Morocco","lat":"34.0546","lng":"-5.0004"},{"city":"N’Djamena","country":"Chad","lat":"12.1131","lng":"15.0491"},{"city":"Tegucigalpa","country":"Honduras","lat":"14.1020","lng":"-87.2175"},{"city":"Kingston","country":"Jamaica","lat":"17.9771","lng":"-76.7674"},{"city":"Nay Pyi Taw","country":"Burma","lat":"19.7666","lng":"96.1186"},{"city":"Djibouti","country":"Djibouti","lat":"11.5950","lng":"43.1480"},{"city":"Managua","country":"Nicaragua","lat":"12.1530","lng":"-86.2685"},{"city":"Niamey","country":"Niger","lat":"13.5167","lng":"2.1167"},{"city":"Tirana","country":"Albania","lat":"41.3275","lng":"19.8189"},{"city":"Kathmandu","country":"Nepal","lat":"27.7167","lng":"85.3166"},{"city":"Ulaanbaatar","country":"Mongolia","lat":"47.9167","lng":"106.9166"},{"city":"Kigali","country":"Rwanda","lat":"-1.9536","lng":"30.0605"},{"city":"Bishkek","country":"Kyrgyzstan","lat":"42.8731","lng":"74.5852"},{"city":"Oslo","country":"Norway","lat":"59.9167","lng":"10.7500"},{"city":"Bangui","country":"Central African Republic","lat":"4.3666","lng":"18.5583"},{"city":"Freetown","country":"Sierra Leone","lat":"8.4700","lng":"-13.2342"},{"city":"Islamabad","country":"Pakistan","lat":"33.7000","lng":"73.1666"},{"city":"Cotonou","country":"Benin","lat":"6.4000","lng":"2.5200"},{"city":"Vientiane","country":"Laos","lat":"17.9667","lng":"102.6000"},{"city":"Riga","country":"Latvia","lat":"56.9500","lng":"24.1000"},{"city":"Nouakchott","country":"Mauritania","lat":"18.0864","lng":"-15.9753"},{"city":"Muscat","country":"Oman","lat":"23.6133","lng":"58.5933"},{"city":"Ashgabat","country":"Turkmenistan","lat":"37.9500","lng":"58.3833"},{"city":"Zagreb","country":"Croatia","lat":"45.8000","lng":"16.0000"},{"city":"Sarajevo","country":"Bosnia And Herzegovina","lat":"43.8500","lng":"18.3830"},{"city":"Chisinau","country":"Moldova","lat":"47.0050","lng":"28.8577"},{"city":"Lilongwe","country":"Malawi","lat":"-13.9833","lng":"33.7833"},{"city":"Asmara","country":"Eritrea","lat":"15.3333","lng":"38.9333"},{"city":"Abu Dhabi","country":"United Arab Emirates","lat":"24.4667","lng":"54.3666"},{"city":"Port Louis","country":"Mauritius","lat":"-20.1666","lng":"57.5000"},{"city":"Libreville","country":"Gabon","lat":"0.3854","lng":"9.4580"},{"city":"Manama","country":"Bahrain","lat":"26.2361","lng":"50.5831"},{"city":"Vilnius","country":"Lithuania","lat":"54.6834","lng":"25.3166"},{"city":"Skopje","country":"Macedonia","lat":"42.0000","lng":"21.4335"},{"city":"Bloemfontein","country":"South Africa","lat":"-29.1200","lng":"26.2299"},{"city":"Bratislava","country":"Slovakia","lat":"48.1500","lng":"17.1170"},{"city":"Bissau","country":"Guinea-Bissau","lat":"11.8650","lng":"-15.5984"},{"city":"Tallinn","country":"Estonia","lat":"59.4339","lng":"24.7280"},{"city":"Wellington","country":"New Zealand","lat":"-41.3000","lng":"174.7833"},{"city":"Valletta","country":"Malta","lat":"35.8997","lng":"14.5147"},{"city":"Maseru","country":"Lesotho","lat":"-29.3167","lng":"27.4833"},{"city":"Nur-Sultan","country":"Kazakhstan","lat":"51.1811","lng":"71.4278"},{"city":"Bujumbura","country":"Burundi","lat":"-3.3761","lng":"29.3600"},{"city":"Canberra","country":"Australia","lat":"-35.2830","lng":"149.1290"},{"city":"New Delhi","country":"India","lat":"28.6000","lng":"77.2000"},{"city":"Ljubljana","country":"Slovenia","lat":"46.0553","lng":"14.5150"},{"city":"Porto-Novo","country":"Benin","lat":"6.4833","lng":"2.6166"},{"city":"Bandar Seri Begawan","country":"Brunei","lat":"4.8833","lng":"114.9333"},{"city":"Port of Spain","country":"Trinidad And Tobago","lat":"10.6520","lng":"-61.5170"},{"city":"Port Moresby","country":"Papua New Guinea","lat":"-9.4647","lng":"147.1925"},{"city":"Bern","country":"Switzerland","lat":"46.9167","lng":"7.4670"},{"city":"Windhoek","country":"Namibia","lat":"-22.5700","lng":"17.0835"},{"city":"Georgetown","country":"Guyana","lat":"6.8020","lng":"-58.1670"},{"city":"Paramaribo","country":"Suriname","lat":"5.8350","lng":"-55.1670"},{"city":"Dili","country":"Timor-Leste","lat":"-8.5594","lng":"125.5795"},{"city":"Nassau","country":"Bahamas, The","lat":"25.0834","lng":"-77.3500"},{"city":"Sucre","country":"Bolivia","lat":"-19.0410","lng":"-65.2595"},{"city":"Nicosia","country":"Cyprus","lat":"35.1667","lng":"33.3666"},{"city":"Dodoma","country":"Tanzania","lat":"-6.1833","lng":"35.7500"},{"city":"Colombo","country":"Sri Lanka","lat":"6.9320","lng":"79.8578"},{"city":"Gaborone","country":"Botswana","lat":"-24.6463","lng":"25.9119"},{"city":"Yamoussoukro","country":"Côte D’Ivoire","lat":"6.8184","lng":"-5.2755"},{"city":"Bridgetown","country":"Barbados","lat":"13.1020","lng":"-59.6165"},{"city":"Suva","country":"Fiji","lat":"-18.1330","lng":"178.4417"},{"city":"Reykjavík","country":"Iceland","lat":"64.1500","lng":"-21.9500"},{"city":"Malabo","country":"Equatorial Guinea","lat":"3.7500","lng":"8.7833"},{"city":"Willemstad","country":"Curaçao","lat":"12.2004","lng":"-69.0200"},{"city":"Podgorica","country":"Montenegro","lat":"42.4660","lng":"19.2663"},{"city":"Moroni","country":"Comoros","lat":"-11.7042","lng":"43.2402"},{"city":"Sri Jayewardenepura Kotte","country":"Sri Lanka","lat":"6.9000","lng":"79.9500"},{"city":"Praia","country":"Cabo Verde","lat":"14.9167","lng":"-23.5167"},{"city":"Male","country":"Maldives","lat":"4.1667","lng":"73.4999"},{"city":"Juba","country":"South Sudan","lat":"4.8300","lng":"31.5800"},{"city":"Luxembourg","country":"Luxembourg","lat":"49.6117","lng":"6.1300"},{"city":"Thimphu","country":"Bhutan","lat":"27.4730","lng":"89.6390"},{"city":"Mbabane","country":"Swaziland","lat":"-26.3167","lng":"31.1333"},{"city":"São Tomé","country":"Sao Tome And Principe","lat":"0.3334","lng":"6.7333"},{"city":"Honiara","country":"Solomon Islands","lat":"-9.4380","lng":"159.9498"},{"city":"Oranjestad","country":"Aruba","lat":"12.5304","lng":"-70.0290"},{"city":"Apia","country":"Samoa","lat":"-13.8415","lng":"-171.7386"},{"city":"Andorra la Vella","country":"Andorra","lat":"42.5000","lng":"1.5165"},{"city":"Kingstown","country":"Saint Vincent And The Grenadines","lat":"13.1483","lng":"-61.2121"},{"city":"Port-Vila","country":"Vanuatu","lat":"-17.7334","lng":"168.3166"},{"city":"Banjul","country":"Gambia, The","lat":"13.4539","lng":"-16.5917"},{"city":"Nuku‘alofa","country":"Tonga","lat":"-21.1385","lng":"-175.2206"},{"city":"Castries","country":"Saint Lucia","lat":"14.0020","lng":"-61.0000"},{"city":"Monaco","country":"Monaco","lat":"43.7396","lng":"7.4069"},{"city":"Vaduz","country":"Liechtenstein","lat":"47.1337","lng":"9.5167"},{"city":"Saint John’s","country":"Antigua And Barbuda","lat":"17.1180","lng":"-61.8500"},{"city":"Saint George’s","country":"Grenada","lat":"12.0526","lng":"-61.7416"},{"city":"Victoria","country":"Seychelles","lat":"-4.6166","lng":"55.4500"},{"city":"San Marino","country":"San Marino","lat":"43.9172","lng":"12.4667"},{"city":"Tarawa","country":"Kiribati","lat":"1.3382","lng":"173.0176"},{"city":"Majuro","country":"Marshall Islands","lat":"7.1030","lng":"171.3800"},{"city":"Roseau","country":"Dominica","lat":"15.3010","lng":"-61.3870"},{"city":"Basseterre","country":"Saint Kitts And Nevis","lat":"17.3020","lng":"-62.7170"},{"city":"Belmopan","country":"Belize","lat":"17.2520","lng":"-88.7671"},{"city":"Pago Pago","country":"American Samoa","lat":"-14.2740","lng":"-170.7046"},{"city":"Lobamba","country":"Swaziland","lat":"-26.4667","lng":"31.2000"},{"city":"Funafuti","country":"Tuvalu","lat":"-8.5167","lng":"179.2166"},{"city":"Palikir","country":"Micronesia, Federated States Of","lat":"6.9166","lng":"158.1500"},{"city":"Capitol Hill","country":"Northern Mariana Islands","lat":"15.2137","lng":"145.7546"},{"city":"Hagåtña","country":"Guam","lat":"13.4745","lng":"144.7504"},{"city":"Al Quds","country":"West Bank","lat":"31.7764","lng":"35.2269"},{"city":"Philipsburg","country":"Sint Maarten","lat":"18.0255","lng":"-63.0450"},{"city":"Gitega","country":"Burundi","lat":"-3.4271","lng":"29.9246"},{"city":"Pristina","country":"Kosovo","lat":"42.6666","lng":"21.1724"},{"city":"Ngerulmud","country":"Palau","lat":"7.5000","lng":"134.6242"},{"city":"Aden","country":"Yemen","lat":"12.7797","lng":"45.0095"},{"city":"Cochabamba","country":"Bolivia","lat":"-17.4100","lng":"-66.1700"},{"city":"Yongzhou","country":"China","lat":"26.2304","lng":"111.6200"},{"city":"Baoshan","country":"China","lat":"25.1200","lng":"99.1500"},{"city":"Quảng Hà","country":"Vietnam","lat":"16.0600","lng":"108.2500"},{"city":"Antipolo","country":"Philippines","lat":"14.5886","lng":"121.1757"},{"city":"Navotas","country":"Philippines","lat":"14.6477","lng":"120.9591"},{"city":"Mandaluyong City","country":"Philippines","lat":"14.5832","lng":"121.0409"},{"city":"Mandaue City","country":"Philippines","lat":"10.3237","lng":"123.9436"},{"city":"Pasig City","country":"Philippines","lat":"14.5604","lng":"121.0812"},{"city":"Un’goofaaru","country":"Maldives","lat":"5.6681","lng":"73.0302"},{"city":"Banqiao","country":"Taiwan","lat":"25.0143","lng":"121.4672"},{"city":"Caloocan City","country":"Philippines","lat":"14.6492","lng":"120.9826"},{"city":"San Juan","country":"Philippines","lat":"14.6000","lng":"121.0333"},{"city":"Valenzuela","country":"Philippines","lat":"14.6936","lng":"120.9656"},{"city":"City of Parañaque","country":"Philippines","lat":"14.4978","lng":"120.9907"},{"city":"Lucena","country":"Philippines","lat":"13.9348","lng":"121.6127"},{"city":"Masbate","country":"Philippines","lat":"12.3687","lng":"123.6225"},{"city":"Hackney","country":"United Kingdom","lat":"51.5500","lng":"-0.0500"},{"city":"Tandag","country":"Philippines","lat":"9.0783","lng":"126.1986"},{"city":"Camden Town","country":"United Kingdom","lat":"51.5457","lng":"-0.1403"},{"city":"Islington","country":"United Kingdom","lat":"51.5333","lng":"-0.1000"},{"city":"Kensington","country":"United Kingdom","lat":"51.5047","lng":"-0.1998"},{"city":"Malabon","country":"Philippines","lat":"14.6691","lng":"120.9720"},{"city":"Naifaru","country":"Maldives","lat":"5.4442","lng":"73.3662"},{"city":"Hammersmith","country":"United Kingdom","lat":"51.5000","lng":"-0.2333"},{"city":"East Ham","country":"United Kingdom","lat":"51.5333","lng":"0.0500"},{"city":"Oroquieta","country":"Philippines","lat":"8.4859","lng":"123.8048"},{"city":"Camberwell","country":"United Kingdom","lat":"51.4736","lng":"-0.0916"},{"city":"Walthamstow","country":"United Kingdom","lat":"51.6000","lng":"-0.0333"},{"city":"Đà Nẵng","country":"Vietnam","lat":"16.0748","lng":"108.2240"},{"city":"Catarman","country":"Philippines","lat":"12.4989","lng":"124.6377"},{"city":"City of Westminster","country":"United Kingdom","lat":"51.5000","lng":"-0.1167"},{"city":"Lambeth","country":"United Kingdom","lat":"51.5000","lng":"-0.1167"},{"city":"Catford","country":"United Kingdom","lat":"51.4500","lng":"-0.0167"},{"city":"Hove","country":"United Kingdom","lat":"50.8333","lng":"-0.1833"},{"city":"La Trinidad","country":"Philippines","lat":"16.4556","lng":"120.5903"},{"city":"Marawi City","country":"Philippines","lat":"8.0034","lng":"124.2839"},{"city":"Taguig City","country":"Philippines","lat":"14.5289","lng":"121.0723"},{"city":"Northampton","country":"United Kingdom","lat":"52.2500","lng":"-0.8833"},{"city":"Sliema","country":"Malta","lat":"35.9125","lng":"14.5019"},{"city":"Lapu-Lapu City","country":"Philippines","lat":"10.3103","lng":"123.9494"},{"city":"Ealing","country":"United Kingdom","lat":"51.4888","lng":"-0.3048"},{"city":"Ikeja","country":"Nigeria","lat":"6.5965","lng":"3.3421"},{"city":"Poplar","country":"United Kingdom","lat":"51.5000","lng":"-0.0167"},{"city":"Balanga","country":"Philippines","lat":"14.6761","lng":"120.5361"},{"city":"Santiago","country":"Philippines","lat":"16.6881","lng":"121.5472"},{"city":"Dumaguete City","country":"Philippines","lat":"9.3070","lng":"123.3074"},{"city":"Marikina City","country":"Philippines","lat":"14.6414","lng":"121.1118"},{"city":"Santo Domingo Este","country":"Dominican Republic","lat":"18.4885","lng":"-69.8571"},{"city":"Sorsogon","country":"Philippines","lat":"12.9708","lng":"124.0053"},{"city":"Kalibo","country":"Philippines","lat":"11.7086","lng":"122.3648"},{"city":"Ilford","country":"United Kingdom","lat":"51.5597","lng":"0.0708"},{"city":"Wandsworth","country":"United Kingdom","lat":"51.4500","lng":"-0.2000"},{"city":"Kidapawan","country":"Philippines","lat":"7.0083","lng":"125.0894"},{"city":"Fgura","country":"Malta","lat":"35.8703","lng":"14.5133"},{"city":"Birkirkara","country":"Malta","lat":"35.8972","lng":"14.4611"},{"city":"Wood Green","country":"United Kingdom","lat":"51.6000","lng":"-0.1167"},{"city":"Ħamrun","country":"Malta","lat":"35.8847","lng":"14.4844"},{"city":"Koboko","country":"Uganda","lat":"3.4136","lng":"30.9599"},{"city":"Enfield","country":"United Kingdom","lat":"51.6667","lng":"-0.0667"},{"city":"Arafat","country":"Mauritania","lat":"18.0583","lng":"-15.9621"},{"city":"San Jose","country":"Philippines","lat":"10.7450","lng":"121.9415"},{"city":"Darlington","country":"United Kingdom","lat":"54.5333","lng":"-1.5667"},{"city":"Daet","country":"Philippines","lat":"14.1122","lng":"122.9553"},{"city":"Virac","country":"Philippines","lat":"13.5848","lng":"124.2374"},{"city":"Senglea","country":"Malta","lat":"35.8875","lng":"14.5169"},{"city":"Mahibadhoo","country":"Maldives","lat":"3.7571","lng":"72.9689"},{"city":"South Shields","country":"United Kingdom","lat":"54.9878","lng":"-1.4214"},{"city":"Rochester","country":"United Kingdom","lat":"51.3833","lng":"0.5167"},{"city":"Eydhafushi","country":"Maldives","lat":"5.1038","lng":"73.0699"},{"city":"Bắc Ninh","country":"Vietnam","lat":"21.1861","lng":"106.0763"},{"city":"Maidstone","country":"United Kingdom","lat":"51.2667","lng":"0.5167"},{"city":"Bayombong","country":"Philippines","lat":"16.4812","lng":"121.1497"},{"city":"Tarxien","country":"Malta","lat":"35.8658","lng":"14.5150"},{"city":"Jolo","country":"Philippines","lat":"6.0522","lng":"121.0022"},{"city":"Bongao","country":"Philippines","lat":"5.0292","lng":"119.7731"},{"city":"Piran","country":"Slovenia","lat":"45.5278","lng":"13.5706"},{"city":"Morden","country":"United Kingdom","lat":"51.3982","lng":"-0.1984"},{"city":"Barnsley","country":"United Kingdom","lat":"53.5500","lng":"-1.4833"},{"city":"Ben Arous","country":"Tunisia","lat":"36.7545","lng":"10.2217"},{"city":"Floriana","country":"Malta","lat":"35.8958","lng":"14.5083"},{"city":"Grays","country":"United Kingdom","lat":"51.4833","lng":"0.3333"},{"city":"Imsida","country":"Malta","lat":"35.8925","lng":"14.4828"},{"city":"Wembley","country":"United Kingdom","lat":"51.5500","lng":"-0.2833"},{"city":"Weston-super-Mare","country":"United Kingdom","lat":"51.3458","lng":"-2.9678"},{"city":"Tevragh Zeina","country":"Mauritania","lat":"18.0989","lng":"-15.9885"},{"city":"Santa Venera","country":"Malta","lat":"35.8908","lng":"14.4742"},{"city":"Saitama","country":"Japan","lat":"35.9000","lng":"139.6500"},{"city":"Ashton-under-Lyne","country":"United Kingdom","lat":"53.5000","lng":"-2.1000"},{"city":"Pietà","country":"Malta","lat":"35.8947","lng":"14.4950"},{"city":"Ta’ Xbiex","country":"Malta","lat":"35.8992","lng":"14.4944"},{"city":"Newport","country":"United Kingdom","lat":"50.7000","lng":"-1.3000"},{"city":"Croydon","country":"United Kingdom","lat":"51.3833","lng":"-0.1000"},{"city":"Barri","country":"United Kingdom","lat":"51.4067","lng":"-3.2694"},{"city":"Stretford","country":"United Kingdom","lat":"53.4500","lng":"-2.3167"},{"city":"Ibb","country":"Yemen","lat":"13.9408","lng":"44.1773"},{"city":"Kingston upon Thames","country":"United Kingdom","lat":"51.4167","lng":"-0.2833"},{"city":"Hendon","country":"United Kingdom","lat":"51.6000","lng":"-0.2167"},{"city":"Sutton","country":"United Kingdom","lat":"51.3500","lng":"-0.2000"},{"city":"Doncaster","country":"United Kingdom","lat":"53.5333","lng":"-1.1167"},{"city":"Romford","country":"United Kingdom","lat":"51.5833","lng":"0.2000"},{"city":"Gżira","country":"Malta","lat":"35.9058","lng":"14.4881"},{"city":"Calapan","country":"Philippines","lat":"13.4108","lng":"121.1797"},{"city":"Manouba","country":"Tunisia","lat":"36.8101","lng":"10.0956"},{"city":"Kanifing","country":"Gambia, The","lat":"13.4464","lng":"-16.6744"},{"city":"South Bank","country":"United Kingdom","lat":"54.5667","lng":"-1.1500"},{"city":"Tagum","country":"Philippines","lat":"7.4475","lng":"125.8094"},{"city":"Muntinlupa City","country":"Philippines","lat":"14.4135","lng":"121.0263"},{"city":"Kiambu","country":"Kenya","lat":"-1.1714","lng":"36.8356"},{"city":"Worcester","country":"United Kingdom","lat":"52.2000","lng":"-2.2000"},{"city":"Catbalogan","country":"Philippines","lat":"11.7753","lng":"124.8861"},{"city":"Stockport","country":"United Kingdom","lat":"53.4000","lng":"-2.1500"},{"city":"Paisley","country":"United Kingdom","lat":"55.8333","lng":"-4.4333"},{"city":"Uppsala","country":"Sweden","lat":"59.8500","lng":"17.6333"},{"city":"Uxbridge","country":"United Kingdom","lat":"51.5500","lng":"-0.4833"},{"city":"Shrewsbury","country":"United Kingdom","lat":"52.7167","lng":"-2.7333"},{"city":"Digos","country":"Philippines","lat":"6.7497","lng":"125.3572"},{"city":"Lincoln","country":"United Kingdom","lat":"53.2333","lng":"-0.5333"},{"city":"Béni Mellal","country":"Morocco","lat":"32.3373","lng":"-6.3498"},{"city":"Hưng Yên","country":"Vietnam","lat":"20.6464","lng":"106.0511"},{"city":"Wallasey","country":"United Kingdom","lat":"53.4333","lng":"-3.0667"},{"city":"Oldham","country":"United Kingdom","lat":"53.5500","lng":"-2.1167"},{"city":"Twickenham","country":"United Kingdom","lat":"51.4333","lng":"-0.3167"},{"city":"Preston","country":"United Kingdom","lat":"53.7667","lng":"-2.7167"},{"city":"Harrow","country":"United Kingdom","lat":"51.5833","lng":"-0.3167"},{"city":"Rotherham","country":"United Kingdom","lat":"53.4333","lng":"-1.3500"},{"city":"Dorchester","country":"United Kingdom","lat":"50.7167","lng":"-2.4333"},{"city":"San Ġwann","country":"Malta","lat":"35.9056","lng":"14.4761"},{"city":"Newport","country":"United Kingdom","lat":"51.5833","lng":"-2.9833"},{"city":"Port Talbot","country":"United Kingdom","lat":"51.6000","lng":"-3.7833"},{"city":"Rumphi","country":"Malawi","lat":"-11.0195","lng":"33.8546"},{"city":"Derby","country":"United Kingdom","lat":"52.9333","lng":"-1.5000"},{"city":"Makati City","country":"Philippines","lat":"14.5501","lng":"121.0360"},{"city":"Isulan","country":"Philippines","lat":"6.6294","lng":"124.6051"},{"city":"Hounslow","country":"United Kingdom","lat":"51.4667","lng":"-0.3500"},{"city":"Pont-y-pŵl","country":"United Kingdom","lat":"51.7011","lng":"-3.0444"},{"city":"Forfar","country":"United Kingdom","lat":"56.6500","lng":"-2.8833"},{"city":"Trinidad","country":"Uruguay","lat":"-33.5169","lng":"-56.8981"},{"city":"Trece Martires City","country":"Philippines","lat":"14.2832","lng":"120.8677"},{"city":"Boac","country":"Philippines","lat":"13.4463","lng":"121.8400"},{"city":"Janakpur","country":"Nepal","lat":"26.7288","lng":"85.9263"},{"city":"San Ġiljan","country":"Malta","lat":"35.9197","lng":"14.4844"},{"city":"Tubod","country":"Philippines","lat":"8.0555","lng":"123.7904"},{"city":"Mamburao","country":"Philippines","lat":"13.2233","lng":"120.5960"},{"city":"Khenchela","country":"Algeria","lat":"35.4358","lng":"7.1433"},{"city":"Widnes","country":"United Kingdom","lat":"53.3500","lng":"-2.7333"},{"city":"Taunton","country":"United Kingdom","lat":"51.0211","lng":"-3.1047"},{"city":"Dunleary","country":"Ireland","lat":"53.2925","lng":"-6.1286"},{"city":"Dudley","country":"United Kingdom","lat":"52.5000","lng":"-2.0833"},{"city":"Nabunturan","country":"Philippines","lat":"7.6029","lng":"125.9629"},{"city":"Bugiri","country":"Uganda","lat":"0.5714","lng":"33.7417"},{"city":"Wigan","country":"United Kingdom","lat":"53.5333","lng":"-2.6167"},{"city":"Malita","country":"Philippines","lat":"6.4150","lng":"125.6117"},{"city":"Hereford","country":"United Kingdom","lat":"52.0500","lng":"-2.7167"},{"city":"Gambēla","country":"Ethiopia","lat":"8.2500","lng":"34.5833"},{"city":"Maasin","country":"Philippines","lat":"10.1336","lng":"124.8447"},{"city":"Glenrothes","country":"United Kingdom","lat":"56.2000","lng":"-3.1833"},{"city":"Rochdale","country":"United Kingdom","lat":"53.6167","lng":"-2.1500"},{"city":"Vittoriosa","country":"Malta","lat":"35.8922","lng":"14.5183"},{"city":"Xırdalan","country":"Azerbaijan","lat":"40.4481","lng":"49.7550"},{"city":"Chiba","country":"Japan","lat":"35.6000","lng":"140.1167"},{"city":"Aylesbury","country":"United Kingdom","lat":"51.8167","lng":"-0.8000"},{"city":"Balzan","country":"Malta","lat":"35.9003","lng":"14.4550"},{"city":"Wokingham","country":"United Kingdom","lat":"51.4167","lng":"-0.8333"},{"city":"Thinadhoo","country":"Maldives","lat":"0.5303","lng":"72.9967"},{"city":"Truro","country":"United Kingdom","lat":"50.2617","lng":"-5.0433"},{"city":"Funadhoo","country":"Maldives","lat":"6.1509","lng":"73.2901"},{"city":"Bangued","country":"Philippines","lat":"17.5982","lng":"120.6155"},{"city":"Simferopol’","country":"Ukraine","lat":"44.9572","lng":"34.1108"},{"city":"Thornbury","country":"United Kingdom","lat":"51.6089","lng":"-2.5203"},{"city":"Bracknell","country":"United Kingdom","lat":"51.4167","lng":"-0.7500"},{"city":"Busia","country":"Kenya","lat":"0.4586","lng":"34.1160"},{"city":"Trowbridge","country":"United Kingdom","lat":"51.3189","lng":"-2.2086"},{"city":"Morpeth","country":"United Kingdom","lat":"55.1667","lng":"-1.6833"},{"city":"Milton Keynes","country":"United Kingdom","lat":"52.0333","lng":"-0.7000"},{"city":"La Chorrera","country":"Panama","lat":"8.8803","lng":"-79.7833"},{"city":"Caerfyrddin","country":"United Kingdom","lat":"51.8592","lng":"-4.3117"},{"city":"Mambajao","country":"Philippines","lat":"9.2504","lng":"124.7156"},{"city":"Gloucester","country":"United Kingdom","lat":"51.8333","lng":"-2.2500"},{"city":"Kitui","country":"Kenya","lat":"-1.3670","lng":"38.0106"},{"city":"Newbury","country":"United Kingdom","lat":"51.4000","lng":"-1.3167"},{"city":"Qormi","country":"Malta","lat":"35.8783","lng":"14.4719"},{"city":"Dalkeith","country":"United Kingdom","lat":"55.8667","lng":"-3.0667"},{"city":"Kulhudhuffushi","country":"Maldives","lat":"6.6223","lng":"73.0702"},{"city":"Naval","country":"Philippines","lat":"11.5612","lng":"124.3952"},{"city":"Bangor","country":"United Kingdom","lat":"54.6617","lng":"-5.6654"},{"city":"Scunthorpe","country":"United Kingdom","lat":"53.5833","lng":"-0.6500"},{"city":"Chelmsford","country":"United Kingdom","lat":"51.7333","lng":"0.4833"},{"city":"Kolonia","country":"Micronesia, Federated States Of","lat":"6.9639","lng":"158.2083"},{"city":"Motherwell","country":"United Kingdom","lat":"55.7833","lng":"-4.0000"},{"city":"Dipolog","country":"Philippines","lat":"8.5883","lng":"123.3409"},{"city":"Kampong Thom","country":"Cambodia","lat":"12.7111","lng":"104.8887"},{"city":"Dhihdhoo","country":"Maldives","lat":"6.8874","lng":"73.1140"},{"city":"Balaka","country":"Malawi","lat":"-14.9889","lng":"34.9591"},{"city":"Mosta","country":"Malta","lat":"35.9092","lng":"14.4256"},{"city":"Hartlepool","country":"United Kingdom","lat":"54.6861","lng":"-1.2125"},{"city":"Kudahuvadhoo","country":"Maldives","lat":"2.6717","lng":"72.8936"},{"city":"Kapchorwa","country":"Uganda","lat":"1.3965","lng":"34.4509"},{"city":"San Fernando","country":"Philippines","lat":"16.6186","lng":"120.3194"},{"city":"Arima","country":"Trinidad And Tobago","lat":"10.6374","lng":"-61.2823"},{"city":"Warrington","country":"United Kingdom","lat":"53.3833","lng":"-2.6000"},{"city":"Merthyr Tudful","country":"United Kingdom","lat":"51.7500","lng":"-3.3833"},{"city":"Rasdhoo","country":"Maldives","lat":"4.2631","lng":"72.9919"},{"city":"Salford","country":"United Kingdom","lat":"53.4833","lng":"-2.2667"},{"city":"Hertford","country":"United Kingdom","lat":"51.8000","lng":"-0.0667"},{"city":"Koper","country":"Slovenia","lat":"45.5469","lng":"13.7294"},{"city":"Żabbar","country":"Malta","lat":"35.8761","lng":"14.5350"},{"city":"Caernarfon","country":"United Kingdom","lat":"53.1500","lng":"-4.2667"},{"city":"Walsall","country":"United Kingdom","lat":"52.6000","lng":"-2.0000"},{"city":"Al Wakrah","country":"Qatar","lat":"25.1715","lng":"51.6034"},{"city":"Tallaght","country":"Ireland","lat":"53.2878","lng":"-6.3411"},{"city":"Swieqi","country":"Malta","lat":"35.9225","lng":"14.4800"},{"city":"Ballymena","country":"United Kingdom","lat":"54.8612","lng":"-6.2763"},{"city":"Škofja Loka","country":"Slovenia","lat":"46.1672","lng":"14.3089"},{"city":"Hwlffordd","country":"United Kingdom","lat":"51.8017","lng":"-4.9708"},{"city":"Iba","country":"Philippines","lat":"15.3276","lng":"119.9780"},{"city":"Wrecsam","country":"United Kingdom","lat":"53.0500","lng":"-3.0000"},{"city":"Magherafelt","country":"United Kingdom","lat":"54.7543","lng":"-6.6094"},{"city":"Bundibugyo","country":"Uganda","lat":"0.7085","lng":"30.0634"},{"city":"Ta Khmau","country":"Cambodia","lat":"11.4833","lng":"104.9500"},{"city":"Yoro","country":"Honduras","lat":"15.1375","lng":"-87.1278"},{"city":"Malolos","country":"Philippines","lat":"14.8443","lng":"120.8104"},{"city":"Boumerdes","country":"Algeria","lat":"36.7590","lng":"3.4748"},{"city":"Domžale","country":"Slovenia","lat":"46.1381","lng":"14.5978"},{"city":"Belfast","country":"United Kingdom","lat":"54.5968","lng":"-5.9254"},{"city":"Kraljevo","country":"Serbia","lat":"43.7259","lng":"20.6896"},{"city":"Lingayen","country":"Philippines","lat":"16.0218","lng":"120.2319"},{"city":"Lisburn","country":"United Kingdom","lat":"54.5099","lng":"-6.0404"},{"city":"Banlung","country":"Cambodia","lat":"13.7394","lng":"106.9873"},{"city":"Pen-y-Bont ar Ogwr","country":"United Kingdom","lat":"51.5058","lng":"-3.5772"},{"city":"Phủ Lý","country":"Vietnam","lat":"20.5453","lng":"105.9122"},{"city":"Wicklow","country":"Ireland","lat":"52.9750","lng":"-6.0494"},{"city":"Kalkara","country":"Malta","lat":"35.8892","lng":"14.5328"},{"city":"Cospicua","country":"Malta","lat":"35.8856","lng":"14.5275"},{"city":"Thyolo","country":"Malawi","lat":"-16.0703","lng":"35.1471"},{"city":"Newry","country":"United Kingdom","lat":"54.1780","lng":"-6.3381"},{"city":"Strabane","country":"United Kingdom","lat":"54.8224","lng":"-7.4684"},{"city":"Romblon","country":"Philippines","lat":"12.5751","lng":"122.2708"},{"city":"Dagenham","country":"United Kingdom","lat":"51.5500","lng":"0.1667"},{"city":"Ravne na Koroškem","country":"Slovenia","lat":"46.5431","lng":"14.9692"},{"city":"Thulusdhoo","country":"Maldives","lat":"4.3742","lng":"73.6517"},{"city":"Northallerton","country":"United Kingdom","lat":"54.3333","lng":"-1.4333"},{"city":"Clonmel","country":"Ireland","lat":"52.3550","lng":"-7.7039"},{"city":"Leskovac","country":"Serbia","lat":"42.9976","lng":"21.9445"},{"city":"Baalbek","country":"Lebanon","lat":"34.0058","lng":"36.2181"},{"city":"Wexford","country":"Ireland","lat":"52.3342","lng":"-6.4575"},{"city":"Bromley","country":"United Kingdom","lat":"51.4000","lng":"0.0500"},{"city":"Marsaskala","country":"Malta","lat":"35.8669","lng":"14.5619"},{"city":"Isiolo","country":"Kenya","lat":"0.3546","lng":"37.5822"},{"city":"Viligili","country":"Maldives","lat":"0.7539","lng":"73.4353"},{"city":"Downpatrick","country":"United Kingdom","lat":"54.3269","lng":"-5.7113"},{"city":"Užice","country":"Serbia","lat":"43.8582","lng":"19.8441"},{"city":"Alabel","country":"Philippines","lat":"6.1018","lng":"125.2905"},{"city":"Dumbarton","country":"United Kingdom","lat":"55.9500","lng":"-4.5667"},{"city":"Antrim","country":"United Kingdom","lat":"54.7129","lng":"-6.2085"},{"city":"Esch-sur-Alzette","country":"Luxembourg","lat":"49.4958","lng":"5.9806"},{"city":"Lija","country":"Malta","lat":"35.9006","lng":"14.4464"},{"city":"Victoria","country":"Malta","lat":"36.0444","lng":"14.2397"},{"city":"Wakefield","country":"United Kingdom","lat":"53.7000","lng":"-1.4833"},{"city":"Izola","country":"Slovenia","lat":"45.5369","lng":"13.6619"},{"city":"Bariadi","country":"Tanzania","lat":"-2.8069","lng":"33.9878"},{"city":"Hoima","country":"Uganda","lat":"1.4356","lng":"31.3436"},{"city":"Baler","country":"Philippines","lat":"15.7589","lng":"121.5607"},{"city":"Huddersfield","country":"United Kingdom","lat":"53.6500","lng":"-1.7833"},{"city":"Żejtun","country":"Malta","lat":"35.8558","lng":"14.5331"},{"city":"Velenje","country":"Slovenia","lat":"46.3592","lng":"15.1103"},{"city":"Stafford","country":"United Kingdom","lat":"52.8000","lng":"-2.1000"},{"city":"Ennis","country":"Ireland","lat":"52.8436","lng":"-8.9864"},{"city":"Poole","country":"United Kingdom","lat":"50.7167","lng":"-2.0000"},{"city":"Homa Bay","country":"Kenya","lat":"-0.5273","lng":"34.4571"},{"city":"Kabarnet","country":"Kenya","lat":"0.4919","lng":"35.7430"},{"city":"Jagodina","country":"Serbia","lat":"43.9791","lng":"21.2583"},{"city":"Mukono","country":"Uganda","lat":"0.3533","lng":"32.7553"},{"city":"Bindura","country":"Zimbabwe","lat":"-17.3019","lng":"31.3306"},{"city":"Oshakati","country":"Namibia","lat":"-17.7833","lng":"15.6833"},{"city":"Mandera","country":"Kenya","lat":"3.9414","lng":"41.8625"},{"city":"Bexleyheath","country":"United Kingdom","lat":"51.4500","lng":"0.1500"},{"city":"Gateshead","country":"United Kingdom","lat":"54.9450","lng":"-1.6175"},{"city":"Halifax","country":"United Kingdom","lat":"53.7167","lng":"-1.8500"},{"city":"Migori","country":"Kenya","lat":"-1.0634","lng":"34.4731"},{"city":"Naas","country":"Ireland","lat":"53.2158","lng":"-6.6669"},{"city":"Kerugoya","country":"Kenya","lat":"-0.4989","lng":"37.2803"},{"city":"Siquijor","country":"Philippines","lat":"9.2142","lng":"123.5150"},{"city":"Yumbe","country":"Uganda","lat":"3.4651","lng":"31.2469"},{"city":"Fontana","country":"Malta","lat":"36.0375","lng":"14.2361"},{"city":"Butwāl","country":"Nepal","lat":"27.7006","lng":"83.4484"},{"city":"Paola","country":"Malta","lat":"35.8731","lng":"14.4989"},{"city":"Sihanoukville","country":"Cambodia","lat":"10.6359","lng":"103.5017"},{"city":"Banbridge","country":"United Kingdom","lat":"54.3509","lng":"-6.2670"},{"city":"Buchanan","country":"Liberia","lat":"5.8811","lng":"-10.0447"},{"city":"Xgħajra","country":"Malta","lat":"35.8856","lng":"14.5475"},{"city":"Toruń","country":"Poland","lat":"53.0358","lng":"18.6048"},{"city":"Hithadhoo","country":"Maldives","lat":"-0.6000","lng":"73.0833"},{"city":"Newtownabbey","country":"United Kingdom","lat":"54.6691","lng":"-5.9044"},{"city":"Iklin","country":"Malta","lat":"35.9092","lng":"14.4522"},{"city":"Alloa","country":"United Kingdom","lat":"56.1167","lng":"-3.8000"},{"city":"Slovenske Konjice","country":"Slovenia","lat":"46.3367","lng":"15.4258"},{"city":"Vranje","country":"Serbia","lat":"42.5560","lng":"21.9002"},{"city":"Solothurn","country":"Switzerland","lat":"47.2066","lng":"7.5166"},{"city":"Chichester","country":"United Kingdom","lat":"50.8333","lng":"-0.7833"},{"city":"Vĩnh Yên","country":"Vietnam","lat":"21.3089","lng":"105.6049"},{"city":"Dar Naim","country":"Mauritania","lat":"18.0973","lng":"-15.9327"},{"city":"Borongan","country":"Philippines","lat":"11.6081","lng":"125.4319"},{"city":"Iten","country":"Kenya","lat":"0.6703","lng":"35.5081"},{"city":"Stirling","country":"United Kingdom","lat":"56.1167","lng":"-3.9500"},{"city":"Veymandoo","country":"Maldives","lat":"2.1878","lng":"73.0950"},{"city":"Al Maḩwīt","country":"Yemen","lat":"15.4701","lng":"43.5448"},{"city":"Mežica","country":"Slovenia","lat":"46.5214","lng":"14.8544"},{"city":"Phalombe","country":"Malawi","lat":"-15.8064","lng":"35.6507"},{"city":"Usk","country":"United Kingdom","lat":"51.7025","lng":"-2.9042"},{"city":"Nyamira","country":"Kenya","lat":"-0.5633","lng":"34.9358"},{"city":"Aarau","country":"Switzerland","lat":"47.3896","lng":"8.0524"},{"city":"Blackburn","country":"United Kingdom","lat":"53.7500","lng":"-2.4833"},{"city":"Valjevo","country":"Serbia","lat":"44.2720","lng":"19.8874"},{"city":"Wallsend","country":"United Kingdom","lat":"54.9914","lng":"-1.5597"},{"city":"Elgin","country":"United Kingdom","lat":"57.6500","lng":"-3.3333"},{"city":"Mold","country":"United Kingdom","lat":"53.1667","lng":"-3.1333"},{"city":"Swords","country":"Ireland","lat":"53.4597","lng":"-6.2181"},{"city":"Auki","country":"Solomon Islands","lat":"-8.7678","lng":"160.6978"},{"city":"Celje","country":"Slovenia","lat":"46.2361","lng":"15.2675"},{"city":"Cookstown","country":"United Kingdom","lat":"54.6428","lng":"-6.7452"},{"city":"Kirkop","country":"Malta","lat":"35.8422","lng":"14.4853"},{"city":"Felidhoo","country":"Maldives","lat":"3.4718","lng":"73.5470"},{"city":"Trim","country":"Ireland","lat":"53.5550","lng":"-6.7917"},{"city":"Hugh Town","country":"United Kingdom","lat":"49.9146","lng":"-6.3143"},{"city":"Kapsabet","country":"Kenya","lat":"0.2039","lng":"35.1050"},{"city":"Pembroke","country":"Malta","lat":"35.9306","lng":"14.4764"},{"city":"Gorzów Wielkopolski","country":"Poland","lat":"52.7368","lng":"15.2288"},{"city":"Šabac","country":"Serbia","lat":"44.7538","lng":"19.6876"},{"city":"Bolton","country":"United Kingdom","lat":"53.5833","lng":"-2.4333"},{"city":"Nilandhoo","country":"Maldives","lat":"3.0567","lng":"72.8900"},{"city":"Richmond","country":"New Zealand","lat":"-41.3390","lng":"173.1850"},{"city":"Kirakira","country":"Solomon Islands","lat":"-10.4544","lng":"161.9205"},{"city":"Kamnik","country":"Slovenia","lat":"46.2197","lng":"14.6094"},{"city":"Baucau","country":"Timor-Leste","lat":"-8.4757","lng":"126.4563"},{"city":"Radlje ob Dravi","country":"Slovenia","lat":"46.6142","lng":"15.2264"},{"city":"Carrick on Shannon","country":"Ireland","lat":"53.9469","lng":"-8.0900"},{"city":"Attard","country":"Malta","lat":"35.8897","lng":"14.4425"},{"city":"Solihull","country":"United Kingdom","lat":"52.4167","lng":"-1.7833"},{"city":"Newtown Saint Boswells","country":"United Kingdom","lat":"55.5833","lng":"-2.6833"},{"city":"Clydach Vale","country":"United Kingdom","lat":"51.6267","lng":"-3.4761"},{"city":"Chaguanas","country":"Trinidad And Tobago","lat":"10.5167","lng":"-61.4167"},{"city":"Rapla","country":"Estonia","lat":"59.0072","lng":"24.7928"},{"city":"Marsa","country":"Malta","lat":"35.8792","lng":"14.4953"},{"city":"Foammulah","country":"Maldives","lat":"-0.3000","lng":"73.4256"},{"city":"Armagh","country":"United Kingdom","lat":"54.3481","lng":"-6.6496"},{"city":"Tullamore","country":"Ireland","lat":"53.2739","lng":"-7.4889"},{"city":"City of Isabela","country":"Philippines","lat":"6.7041","lng":"121.9712"},{"city":"Valmiera","country":"Latvia","lat":"57.5387","lng":"25.4257"},{"city":"Kranj","country":"Slovenia","lat":"46.2411","lng":"14.3617"},{"city":"Dungannon","country":"United Kingdom","lat":"54.5033","lng":"-6.7643"},{"city":"Fomboni","country":"Comoros","lat":"-12.2842","lng":"43.7428"},{"city":"Coleraine","country":"United Kingdom","lat":"55.1349","lng":"-6.6687"},{"city":"Conwy","country":"United Kingdom","lat":"53.2833","lng":"-3.8333"},{"city":"San Fernando","country":"Philippines","lat":"15.0343","lng":"120.6844"},{"city":"Grosuplje","country":"Slovenia","lat":"45.9556","lng":"14.6589"},{"city":"Kurunegala","country":"Sri Lanka","lat":"7.4839","lng":"80.3683"},{"city":"Murang’a","country":"Kenya","lat":"-0.7210","lng":"37.1526"},{"city":"Bududa","country":"Uganda","lat":"1.0112","lng":"34.3311"},{"city":"Lagawe","country":"Philippines","lat":"16.8000","lng":"121.1192"},{"city":"Craigavon","country":"United Kingdom","lat":"54.4497","lng":"-6.3646"},{"city":"‘Ajmān","country":"United Arab Emirates","lat":"25.4056","lng":"55.4618"},{"city":"Għargħur","country":"Malta","lat":"35.9242","lng":"14.4519"},{"city":"Rakvere","country":"Estonia","lat":"59.3464","lng":"26.3558"},{"city":"Alytus","country":"Lithuania","lat":"54.3964","lng":"24.0414"},{"city":"Żebbuġ","country":"Malta","lat":"35.8719","lng":"14.4411"},{"city":"Zagorje ob Savi","country":"Slovenia","lat":"46.1342","lng":"15.0014"},{"city":"Carlow","country":"Ireland","lat":"52.8408","lng":"-6.9261"},{"city":"Slovenj Gradec","country":"Slovenia","lat":"46.5103","lng":"15.0806"},{"city":"Mersin","country":"Turkey","lat":"36.8004","lng":"34.6128"},{"city":"Sotik Post","country":"Kenya","lat":"-0.7813","lng":"35.3416"},{"city":"Gudja","country":"Malta","lat":"35.8492","lng":"14.5031"},{"city":"Dravograd","country":"Slovenia","lat":"46.5881","lng":"15.0192"},{"city":"Vreed-en-Hoop","country":"Guyana","lat":"6.8093","lng":"-58.1980"},{"city":"Escaldes-Engordany","country":"Andorra","lat":"42.5085","lng":"1.5385"},{"city":"Jõgeva","country":"Estonia","lat":"58.7467","lng":"26.3939"},{"city":"Gornji Milanovac","country":"Serbia","lat":"44.0245","lng":"20.4586"},{"city":"Relizane","country":"Algeria","lat":"35.7373","lng":"0.5560"},{"city":"Žalec","country":"Slovenia","lat":"46.2536","lng":"15.1675"},{"city":"Rhuthun","country":"United Kingdom","lat":"53.1167","lng":"-3.3000"},{"city":"Nara","country":"Japan","lat":"34.6833","lng":"135.8333"},{"city":"Malaybalay","country":"Philippines","lat":"8.1575","lng":"125.1278"},{"city":"Litija","country":"Slovenia","lat":"46.0586","lng":"14.8225"},{"city":"Bajina Bašta","country":"Serbia","lat":"43.9709","lng":"19.5655"},{"city":"Imqabba","country":"Malta","lat":"35.8461","lng":"14.4672"},{"city":"Wolverhampton","country":"United Kingdom","lat":"52.5833","lng":"-2.1333"},{"city":"Tam Kỳ","country":"Vietnam","lat":"15.5736","lng":"108.4740"},{"city":"Saint Paul’s Bay","country":"Malta","lat":"35.9483","lng":"14.4006"},{"city":"Mullingar","country":"Ireland","lat":"53.5333","lng":"-7.3500"},{"city":"Krško","country":"Slovenia","lat":"45.9531","lng":"15.4894"},{"city":"Bà Rịa","country":"Vietnam","lat":"10.4963","lng":"107.1684"},{"city":"Jesenice","country":"Slovenia","lat":"46.4306","lng":"14.0669"},{"city":"Radovljica","country":"Slovenia","lat":"46.3444","lng":"14.1744"},{"city":"Santa Cruz de la Sierra","country":"Bolivia","lat":"-17.8000","lng":"-63.1667"},{"city":"Marsaxlokk","country":"Malta","lat":"35.8419","lng":"14.5431"},{"city":"Prevalje","country":"Slovenia","lat":"46.5469","lng":"14.9208"},{"city":"Outapi","country":"Namibia","lat":"-17.5000","lng":"14.9833"},{"city":"Kuressaare","country":"Estonia","lat":"58.2481","lng":"22.5039"},{"city":"Taro","country":"Solomon Islands","lat":"-6.7111","lng":"156.3972"},{"city":"Kozáni","country":"Greece","lat":"40.3007","lng":"21.7890"},{"city":"Għaxaq","country":"Malta","lat":"35.8489","lng":"14.5167"},{"city":"Birżebbuġa","country":"Malta","lat":"35.8258","lng":"14.5269"},{"city":"Żurrieq","country":"Malta","lat":"35.8311","lng":"14.4742"},{"city":"Naxxar","country":"Malta","lat":"35.9136","lng":"14.4436"},{"city":"Sopište","country":"Macedonia","lat":"41.9547","lng":"21.4275"},{"city":"Trbovlje","country":"Slovenia","lat":"46.1550","lng":"15.0533"},{"city":"Mahikeng","country":"South Africa","lat":"-25.8652","lng":"25.6442"},{"city":"Jēkabpils","country":"Latvia","lat":"56.4833","lng":"25.8500"},{"city":"Longford","country":"Ireland","lat":"53.7333","lng":"-7.8000"},{"city":"Muli","country":"Maldives","lat":"2.9217","lng":"73.5811"},{"city":"Schaffhausen","country":"Switzerland","lat":"47.6973","lng":"8.6349"},{"city":"Ar Rayyān","country":"Qatar","lat":"25.2919","lng":"51.4244"},{"city":"Wakiso","country":"Uganda","lat":"0.4044","lng":"32.4594"},{"city":"Ivančna Gorica","country":"Slovenia","lat":"45.9383","lng":"14.8044"},{"city":"Bury","country":"United Kingdom","lat":"53.6000","lng":"-2.3000"},{"city":"Rogaška Slatina","country":"Slovenia","lat":"46.2375","lng":"15.6397"},{"city":"Lyantonde","country":"Uganda","lat":"-0.4031","lng":"31.1572"},{"city":"Giffnock","country":"United Kingdom","lat":"55.8000","lng":"-4.2833"},{"city":"Ipil","country":"Philippines","lat":"7.7844","lng":"122.5861"},{"city":"Aïn Temouchent","country":"Algeria","lat":"35.2975","lng":"-1.1404"},{"city":"Areguá","country":"Paraguay","lat":"-25.3125","lng":"-57.3847"},{"city":"Serravalle","country":"San Marino","lat":"43.9683","lng":"12.4811"},{"city":"Võru","country":"Estonia","lat":"57.8339","lng":"27.0194"},{"city":"‘Amrān","country":"Yemen","lat":"15.6594","lng":"43.9439"},{"city":"Halba","country":"Lebanon","lat":"34.5428","lng":"36.0797"},{"city":"Marondera","country":"Zimbabwe","lat":"-18.1853","lng":"31.5519"},{"city":"Castlebar","country":"Ireland","lat":"53.8500","lng":"-9.3000"},{"city":"Põlva","country":"Estonia","lat":"58.0603","lng":"27.0694"},{"city":"Nenagh","country":"Ireland","lat":"52.8619","lng":"-8.1967"},{"city":"Laško","country":"Slovenia","lat":"46.1519","lng":"15.2364"},{"city":"Palayan City","country":"Philippines","lat":"15.5415","lng":"121.0848"},{"city":"Bedford","country":"United Kingdom","lat":"52.1333","lng":"-0.4500"},{"city":"Bender","country":"Moldova","lat":"46.8316","lng":"29.4777"},{"city":"Chikwawa","country":"Malawi","lat":"-16.0420","lng":"34.8019"},{"city":"Oakham","country":"United Kingdom","lat":"52.6667","lng":"-0.7333"},{"city":"Ilagan","country":"Philippines","lat":"17.1485","lng":"121.8892"},{"city":"Dunaújváros","country":"Hungary","lat":"46.9661","lng":"18.9386"},{"city":"Kasungu","country":"Malawi","lat":"-13.0364","lng":"33.4822"},{"city":"Safi","country":"Malta","lat":"35.8331","lng":"14.4847"},{"city":"Labuan","country":"Malaysia","lat":"5.2803","lng":"115.2475"},{"city":"Yalova","country":"Turkey","lat":"40.6550","lng":"29.2769"},{"city":"Požega","country":"Serbia","lat":"43.8459","lng":"20.0368"},{"city":"Oldbury","country":"United Kingdom","lat":"52.5000","lng":"-2.0167"},{"city":"Livingston","country":"United Kingdom","lat":"55.8833","lng":"-3.5333"},{"city":"Ruše","country":"Slovenia","lat":"46.5394","lng":"15.5158"},{"city":"Imtarfa","country":"Malta","lat":"35.8933","lng":"14.3989"},{"city":"Picos","country":"Cabo Verde","lat":"15.0833","lng":"-23.6500"},{"city":"Warwick","country":"United Kingdom","lat":"52.2833","lng":"-1.5833"},{"city":"Kerċem","country":"Malta","lat":"36.0419","lng":"14.2267"},{"city":"An Cabhán","country":"Ireland","lat":"53.9908","lng":"-7.3606"},{"city":"Mariehamn","country":"Finland","lat":"60.1000","lng":"19.9500"},{"city":"Nova Gorica","country":"Slovenia","lat":"45.9614","lng":"13.6436"},{"city":"Fonadhoo","country":"Maldives","lat":"1.8342","lng":"73.5031"},{"city":"Žirovnica","country":"Slovenia","lat":"46.4047","lng":"14.1400"},{"city":"Manadhoo","country":"Maldives","lat":"5.7669","lng":"73.4136"},{"city":"Ponta do Sol","country":"Cabo Verde","lat":"17.2014","lng":"-25.0917"},{"city":"Ribeira Grande","country":"Cabo Verde","lat":"17.1825","lng":"-25.0650"},{"city":"Stratford","country":"New Zealand","lat":"-39.3409","lng":"174.2845"},{"city":"Krupanj","country":"Serbia","lat":"44.3676","lng":"19.3633"},{"city":"Lebane","country":"Serbia","lat":"42.9171","lng":"21.7294"},{"city":"Štore","country":"Slovenia","lat":"46.2208","lng":"15.3139"},{"city":"Siaya","country":"Kenya","lat":"0.0607","lng":"34.2881"},{"city":"Aleksinac","country":"Serbia","lat":"43.5417","lng":"21.7078"},{"city":"Cerklje na Gorenjskem","country":"Slovenia","lat":"46.2542","lng":"14.4886"},{"city":"Isale","country":"Burundi","lat":"-3.3489","lng":"29.4839"},{"city":"Šoštanj","country":"Slovenia","lat":"46.3800","lng":"15.0486"},{"city":"Điện Biên Phủ","country":"Vietnam","lat":"21.3854","lng":"103.0161"},{"city":"P’yŏngsŏng","country":"Korea, North","lat":"39.2464","lng":"125.8719"},{"city":"Luqa","country":"Malta","lat":"35.8589","lng":"14.4886"},{"city":"Basse-Terre","country":"Guadeloupe","lat":"16.0000","lng":"-61.7167"},{"city":"Scarborough","country":"Trinidad And Tobago","lat":"11.1811","lng":"-60.7333"},{"city":"Birendranagar","country":"Nepal","lat":"28.5967","lng":"81.6166"},{"city":"Diego Martin","country":"Trinidad And Tobago","lat":"10.7208","lng":"-61.5662"},{"city":"Vladičin Han","country":"Serbia","lat":"42.7082","lng":"22.0664"},{"city":"Knjaževac","country":"Serbia","lat":"43.5667","lng":"22.2539"},{"city":"Basco","country":"Philippines","lat":"20.4486","lng":"121.9702"},{"city":"Murska Sobota","country":"Slovenia","lat":"46.6625","lng":"16.1664"},{"city":"Ljubovija","country":"Serbia","lat":"44.1896","lng":"19.3785"},{"city":"Slovenska Bistrica","country":"Slovenia","lat":"46.3928","lng":"15.5744"},{"city":"Smederevska Palanka","country":"Serbia","lat":"44.3654","lng":"20.9623"},{"city":"Qrendi","country":"Malta","lat":"35.8347","lng":"14.4583"},{"city":"Gornja Radgona","country":"Slovenia","lat":"46.6733","lng":"15.9922"},{"city":"Karlovy Vary","country":"Czechia","lat":"50.2370","lng":"12.8750"},{"city":"Mahonda","country":"Tanzania","lat":"-5.9897","lng":"39.2519"},{"city":"Mali Zvornik","country":"Serbia","lat":"44.3992","lng":"19.1214"},{"city":"Point Fortin","country":"Trinidad And Tobago","lat":"10.1741","lng":"-61.6841"},{"city":"Novo Mesto","country":"Slovenia","lat":"45.7925","lng":"15.1647"},{"city":"Darhan","country":"Mongolia","lat":"49.4867","lng":"105.9228"},{"city":"Paide","country":"Estonia","lat":"58.8856","lng":"25.5572"},{"city":"Surdulica","country":"Serbia","lat":"42.6904","lng":"22.1704"},{"city":"Požarevac","country":"Serbia","lat":"44.6222","lng":"21.1826"},{"city":"Mayuge","country":"Uganda","lat":"0.4578","lng":"33.4806"},{"city":"Durham","country":"United Kingdom","lat":"54.7667","lng":"-1.5667"},{"city":"Varaždin","country":"Croatia","lat":"46.3044","lng":"16.3378"},{"city":"Ptuj","country":"Slovenia","lat":"46.4214","lng":"15.8697"},{"city":"Llandrindod Wells","country":"United Kingdom","lat":"52.2333","lng":"-3.3833"},{"city":"Shariff Aguak","country":"Philippines","lat":"6.8647","lng":"124.4417"},{"city":"Nitra","country":"Slovakia","lat":"48.3090","lng":"18.0873"},{"city":"Gleno","country":"Timor-Leste","lat":"-8.7239","lng":"125.4361"},{"city":"Zaječar","country":"Serbia","lat":"43.9019","lng":"22.2755"},{"city":"Llangefni","country":"United Kingdom","lat":"53.2667","lng":"-4.3333"},{"city":"Šentjur","country":"Slovenia","lat":"46.2172","lng":"15.3975"},{"city":"Al Khawr","country":"Qatar","lat":"25.6839","lng":"51.5058"},{"city":"Stornoway","country":"United Kingdom","lat":"58.2167","lng":"-6.3667"},{"city":"Dowa","country":"Malawi","lat":"-13.6532","lng":"33.9385"},{"city":"Port Laoise","country":"Ireland","lat":"53.0322","lng":"-7.3000"},{"city":"Maliana","country":"Timor-Leste","lat":"-8.9917","lng":"125.2197"},{"city":"Aïn Defla","country":"Algeria","lat":"36.2641","lng":"1.9679"},{"city":"Enniskillen","country":"United Kingdom","lat":"54.3466","lng":"-7.6411"},{"city":"Mādabā","country":"Jordan","lat":"31.7160","lng":"35.7939"},{"city":"Rwamagana","country":"Rwanda","lat":"-1.9487","lng":"30.4347"},{"city":"Cabarroguis","country":"Philippines","lat":"16.5111","lng":"121.5212"},{"city":"Asaba","country":"Nigeria","lat":"6.1985","lng":"6.7274"},{"city":"Prebold","country":"Slovenia","lat":"46.2369","lng":"15.0925"},{"city":"Tulagi","country":"Solomon Islands","lat":"-9.1031","lng":"160.1506"},{"city":"Miklavž na Dravskem Polju","country":"Slovenia","lat":"46.5058","lng":"15.6972"},{"city":"Jordan","country":"Philippines","lat":"10.6584","lng":"122.5963"},{"city":"Aranguez","country":"Trinidad And Tobago","lat":"10.6472","lng":"-61.4461"},{"city":"Šempeter pri Gorici","country":"Slovenia","lat":"45.9275","lng":"13.6411"},{"city":"Mozirje","country":"Slovenia","lat":"46.3394","lng":"14.9633"},{"city":"Šmartno ob Paki","country":"Slovenia","lat":"46.3333","lng":"15.0333"},{"city":"Rumonge","country":"Burundi","lat":"-3.9736","lng":"29.4386"},{"city":"Trenčín","country":"Slovakia","lat":"48.8867","lng":"18.0480"},{"city":"Trebnje","country":"Slovenia","lat":"45.9042","lng":"15.0217"},{"city":"Bor","country":"Serbia","lat":"44.0819","lng":"22.0967"},{"city":"Yambol","country":"Bulgaria","lat":"42.4833","lng":"26.5000"},{"city":"Loznica","country":"Serbia","lat":"44.5312","lng":"19.2427"},{"city":"Paraćin","country":"Serbia","lat":"43.8592","lng":"21.4119"},{"city":"Tržič","country":"Slovenia","lat":"46.3667","lng":"14.3167"},{"city":"Jūrmala","country":"Latvia","lat":"56.9567","lng":"23.7233"},{"city":"Bulambuli","country":"Uganda","lat":"1.1667","lng":"34.3833"},{"city":"Borgo Maggiore","country":"San Marino","lat":"43.9408","lng":"12.4475"},{"city":"Maracha","country":"Uganda","lat":"3.2704","lng":"30.9553"},{"city":"Luwero","country":"Uganda","lat":"0.8492","lng":"32.4731"},{"city":"Kapenguria","country":"Kenya","lat":"1.2389","lng":"35.1119"},{"city":"Jarash","country":"Jordan","lat":"32.2808","lng":"35.8993"},{"city":"Polzela","country":"Slovenia","lat":"46.2833","lng":"15.0667"},{"city":"Yenagoa","country":"Nigeria","lat":"4.9267","lng":"6.2676"},{"city":"Nangan","country":"Taiwan","lat":"26.1504","lng":"119.9328"},{"city":"Kärdla","country":"Estonia","lat":"58.9978","lng":"22.7492"},{"city":"Namayingo","country":"Uganda","lat":"0.2398","lng":"33.8849"},{"city":"Xewkija","country":"Malta","lat":"36.0328","lng":"14.2581"},{"city":"Ystrad Mynach","country":"United Kingdom","lat":"51.6403","lng":"-3.2433"},{"city":"Selibe Phikwe","country":"Botswana","lat":"-21.9758","lng":"27.8347"},{"city":"Kičevo","country":"Macedonia","lat":"41.5127","lng":"20.9589"},{"city":"Lučani","country":"Serbia","lat":"43.8608","lng":"20.1384"},{"city":"Knowsley","country":"United Kingdom","lat":"53.4500","lng":"-2.8500"},{"city":"Valga","country":"Estonia","lat":"57.7744","lng":"26.0453"},{"city":"Brežice","country":"Slovenia","lat":"45.9033","lng":"15.5911"},{"city":"Suong","country":"Cambodia","lat":"11.9118","lng":"105.6582"},{"city":"Għasri","country":"Malta","lat":"36.0578","lng":"14.2264"},{"city":"Kočevje","country":"Slovenia","lat":"45.6433","lng":"14.8633"},{"city":"Smederevo","country":"Serbia","lat":"44.6516","lng":"20.9258"},{"city":"Đồng Xoài","country":"Vietnam","lat":"11.5349","lng":"106.8832"},{"city":"Kruševac","country":"Serbia","lat":"43.5810","lng":"21.3352"},{"city":"Hrastnik","country":"Slovenia","lat":"46.1461","lng":"15.0814"},{"city":"Mila","country":"Algeria","lat":"36.4503","lng":"6.2644"},{"city":"Al Buraymī","country":"Oman","lat":"24.2611","lng":"55.7903"},{"city":"Hunedoara","country":"Romania","lat":"45.7500","lng":"22.9000"},{"city":"Bontoc","country":"Philippines","lat":"17.0899","lng":"120.9780"},{"city":"Đà Lạt","country":"Vietnam","lat":"11.9359","lng":"108.4429"},{"city":"Luuka Town","country":"Uganda","lat":"0.7008","lng":"33.3002"},{"city":"Dingli","country":"Malta","lat":"35.8614","lng":"14.3822"},{"city":"Kabugao","country":"Philippines","lat":"18.0231","lng":"121.1840"},{"city":"Ankaran","country":"Slovenia","lat":"45.5786","lng":"13.7361"},{"city":"Lendava","country":"Slovenia","lat":"46.5614","lng":"16.4506"},{"city":"Vị Thanh","country":"Vietnam","lat":"9.7845","lng":"105.4701"},{"city":"Spodnje Hoče","country":"Slovenia","lat":"46.5000","lng":"15.6500"},{"city":"Selnica ob Dravi","country":"Slovenia","lat":"46.5500","lng":"15.4950"},{"city":"Despotovac","country":"Serbia","lat":"44.0932","lng":"21.4440"},{"city":"Weno","country":"Micronesia, Federated States Of","lat":"7.4458","lng":"151.8500"},{"city":"Mauren","country":"Liechtenstein","lat":"47.2205","lng":"9.5426"},{"city":"Jincheng","country":"Taiwan","lat":"24.4341","lng":"118.3171"},{"city":"Šmartno pri Litiji","country":"Slovenia","lat":"46.0444","lng":"14.8442"},{"city":"Saga","country":"Japan","lat":"33.2333","lng":"130.3000"},{"city":"Mamushë","country":"Kosovo","lat":"42.3308","lng":"20.7269"},{"city":"Liquiçá","country":"Timor-Leste","lat":"-8.5875","lng":"125.3419"},{"city":"Magas","country":"Russia","lat":"43.1667","lng":"44.8000"},{"city":"Osmaniye","country":"Turkey","lat":"37.0742","lng":"36.2478"},{"city":"Cibitoke","country":"Burundi","lat":"-2.8869","lng":"29.1248"},{"city":"Kuala Belait","country":"Brunei","lat":"4.5856","lng":"114.2019"},{"city":"Kibuku","country":"Uganda","lat":"1.0433","lng":"33.7975"},{"city":"Bupoto","country":"Uganda","lat":"0.9061","lng":"34.3578"},{"city":"Xagħra","country":"Malta","lat":"36.0500","lng":"14.2644"},{"city":"Lenart v Slovenskih Goricah","country":"Slovenia","lat":"46.5761","lng":"15.8314"},{"city":"Lai Châu","country":"Vietnam","lat":"22.3964","lng":"103.4582"},{"city":"Manatuto","country":"Timor-Leste","lat":"-8.5114","lng":"126.0131"},{"city":"Neno","country":"Malawi","lat":"-15.3981","lng":"34.6534"},{"city":"Moravče","country":"Slovenia","lat":"46.1369","lng":"14.7450"},{"city":"Apac","country":"Uganda","lat":"1.9845","lng":"32.5340"},{"city":"Imdina","country":"Malta","lat":"35.8869","lng":"14.4025"},{"city":"Sevastopol’","country":"Ukraine","lat":"44.5883","lng":"33.5224"},{"city":"Kladovo","country":"Serbia","lat":"44.6073","lng":"22.6155"},{"city":"Delémont","country":"Switzerland","lat":"47.3664","lng":"7.3290"},{"city":"Düzce","country":"Turkey","lat":"40.8389","lng":"31.1639"},{"city":"Kanal","country":"Slovenia","lat":"46.0886","lng":"13.6397"},{"city":"Sankt Pölten","country":"Austria","lat":"48.2000","lng":"15.6333"},{"city":"Mwaro","country":"Burundi","lat":"-3.5113","lng":"29.7051"},{"city":"Nadur","country":"Malta","lat":"36.0378","lng":"14.2942"},{"city":"Nazarje","country":"Slovenia","lat":"46.3176","lng":"14.9467"},{"city":"Mengeš","country":"Slovenia","lat":"46.1669","lng":"14.5750"},{"city":"Pančevo","country":"Serbia","lat":"44.8713","lng":"20.6443"},{"city":"Brezovica","country":"Slovenia","lat":"46.0333","lng":"14.4000"},{"city":"Zreče","country":"Slovenia","lat":"46.3833","lng":"15.3667"},{"city":"Preddvor","country":"Slovenia","lat":"46.3025","lng":"14.4231"},{"city":"Rubirizi","country":"Uganda","lat":"-0.2989","lng":"30.1336"},{"city":"Vuzenica","country":"Slovenia","lat":"46.5964","lng":"15.1672"},{"city":"Vwawa","country":"Tanzania","lat":"-9.1081","lng":"32.9347"},{"city":"Munxar","country":"Malta","lat":"36.0300","lng":"14.2333"},{"city":"Vrhnika","country":"Slovenia","lat":"45.9661","lng":"14.2956"},{"city":"Pirot","country":"Serbia","lat":"43.1617","lng":"22.5871"},{"city":"Domagnano","country":"San Marino","lat":"43.9492","lng":"12.4686"},{"city":"Woolwich","country":"United Kingdom","lat":"51.4667","lng":"0.2000"},{"city":"Sevnica","country":"Slovenia","lat":"46.0078","lng":"15.3156"},{"city":"Poljčane","country":"Slovenia","lat":"46.3119","lng":"15.5792"},{"city":"Vlasotince","country":"Serbia","lat":"42.9659","lng":"22.1272"},{"city":"Prosperidad","country":"Philippines","lat":"8.5800","lng":"125.8964"},{"city":"Koani","country":"Tanzania","lat":"-6.1333","lng":"39.2833"},{"city":"Žiri","country":"Slovenia","lat":"46.0422","lng":"14.1072"},{"city":"Šmarje pri Jelšah","country":"Slovenia","lat":"46.2272","lng":"15.5192"},{"city":"Komenda","country":"Slovenia","lat":"46.2038","lng":"14.5407"},{"city":"Metlika","country":"Slovenia","lat":"45.6472","lng":"15.3142"},{"city":"Tipasa","country":"Algeria","lat":"36.5897","lng":"2.4475"},{"city":"Sannat","country":"Malta","lat":"36.0244","lng":"14.2428"},{"city":"Vojnik","country":"Slovenia","lat":"46.2933","lng":"15.3033"},{"city":"Medvode","country":"Slovenia","lat":"46.1333","lng":"14.4333"},{"city":"Puerto Francisco de Orellana","country":"Ecuador","lat":"-0.4664","lng":"-76.9872"},{"city":"Škofljica","country":"Slovenia","lat":"45.9833","lng":"14.5767"},{"city":"Remich","country":"Luxembourg","lat":"49.5450","lng":"6.3669"},{"city":"Buala","country":"Solomon Islands","lat":"-8.1448","lng":"159.5905"},{"city":"Cabadbaran","country":"Philippines","lat":"9.1236","lng":"125.5344"},{"city":"Buikwe","country":"Uganda","lat":"0.3375","lng":"33.0106"},{"city":"Kagadi","country":"Uganda","lat":"0.9378","lng":"30.8089"},{"city":"Muta","country":"Slovenia","lat":"46.6114","lng":"15.1661"},{"city":"Radenci","country":"Slovenia","lat":"46.6472","lng":"16.0442"},{"city":"Eschen","country":"Liechtenstein","lat":"47.2109","lng":"9.5216"},{"city":"Colonia","country":"Micronesia, Federated States Of","lat":"9.5144","lng":"138.1292"},{"city":"Novobërdë","country":"Kosovo","lat":"42.6178","lng":"21.4197"},{"city":"Graçanicë","country":"Kosovo","lat":"42.6011","lng":"21.1958"},{"city":"Bled","country":"Slovenia","lat":"46.3692","lng":"14.1136"},{"city":"Spodnji Duplek","country":"Slovenia","lat":"46.5031","lng":"15.7453"},{"city":"Trstenik","country":"Serbia","lat":"43.6169","lng":"21.0025"},{"city":"Bushenyi","country":"Uganda","lat":"-0.5853","lng":"30.2114"},{"city":"Schellenberg","country":"Liechtenstein","lat":"47.2325","lng":"9.5463"},{"city":"Acquaviva","country":"San Marino","lat":"43.9453","lng":"12.4183"},{"city":"Siġġiewi","country":"Malta","lat":"35.8556","lng":"14.4364"},{"city":"Kon Tum","country":"Vietnam","lat":"14.3545","lng":"108.0076"},{"city":"Rabat","country":"Malta","lat":"35.8822","lng":"14.3981"},{"city":"Ash Shīḩānīyah","country":"Qatar","lat":"25.3709","lng":"51.2226"},{"city":"Hamilton","country":"United Kingdom","lat":"55.7667","lng":"-4.0333"},{"city":"Borovnica","country":"Slovenia","lat":"45.9158","lng":"14.3631"},{"city":"Kaliro","country":"Uganda","lat":"0.8949","lng":"33.5048"},{"city":"Tunapuna","country":"Trinidad And Tobago","lat":"10.6524","lng":"-61.3888"},{"city":"Ljutomer","country":"Slovenia","lat":"46.5208","lng":"16.1975"},{"city":"Aračinovo","country":"Macedonia","lat":"42.0264","lng":"21.5619"},{"city":"Idrija","country":"Slovenia","lat":"46.0028","lng":"14.0306"},{"city":"Log pri Brezovici","country":"Slovenia","lat":"46.0167","lng":"14.3667"},{"city":"Naklo","country":"Slovenia","lat":"46.2728","lng":"14.3172"},{"city":"Prokuplje","country":"Serbia","lat":"43.2383","lng":"21.5932"},{"city":"Tissemsilt","country":"Algeria","lat":"35.6072","lng":"1.8108"},{"city":"Batočina","country":"Serbia","lat":"44.1547","lng":"21.0799"},{"city":"Zinjibār","country":"Yemen","lat":"13.1287","lng":"45.3807"},{"city":"Afega","country":"Samoa","lat":"-13.7973","lng":"-171.8531"},{"city":"Mellieħa","country":"Malta","lat":"35.9564","lng":"14.3622"},{"city":"Trindade","country":"Sao Tome And Principe","lat":"0.2967","lng":"6.6814"},{"city":"Sopron","country":"Hungary","lat":"47.6864","lng":"16.5906"},{"city":"Umm Şalāl ‘Alī","country":"Qatar","lat":"25.4697","lng":"51.3975"},{"city":"Al Bāḩah","country":"Saudi Arabia","lat":"20.0129","lng":"41.4677"},{"city":"Santa Cruz","country":"Philippines","lat":"14.1167","lng":"121.2833"},{"city":"La Guaira","country":"Venezuela","lat":"10.6004","lng":"-66.9300"},{"city":"Vrnjačka Banja","country":"Serbia","lat":"43.6223","lng":"20.8956"},{"city":"Aileu","country":"Timor-Leste","lat":"-8.7281","lng":"125.5664"},{"city":"Oplotnica","country":"Slovenia","lat":"46.3878","lng":"15.4467"},{"city":"Fiorentino","country":"San Marino","lat":"43.9092","lng":"12.4581"},{"city":"Butebo","country":"Uganda","lat":"1.1942","lng":"33.9222"},{"city":"Namutumba","country":"Uganda","lat":"0.8363","lng":"33.6858"},{"city":"Tønsberg","country":"Norway","lat":"59.2858","lng":"10.4181"},{"city":"Debe","country":"Trinidad And Tobago","lat":"10.2085","lng":"-61.4527"},{"city":"Saint-Louis","country":"Senegal","lat":"16.0186","lng":"-16.4906"},{"city":"Miragoâne","country":"Haiti","lat":"18.4411","lng":"-73.0883"},{"city":"Ormož","country":"Slovenia","lat":"46.4114","lng":"16.1544"},{"city":"Dogbo","country":"Benin","lat":"6.8167","lng":"1.7833"},{"city":"Abakaliki","country":"Nigeria","lat":"6.3249","lng":"8.1137"},{"city":"Manafwa","country":"Uganda","lat":"0.9784","lng":"34.3743"},{"city":"Dimitrovgrad","country":"Serbia","lat":"43.0155","lng":"22.7776"},{"city":"Čakovec","country":"Croatia","lat":"46.3844","lng":"16.4339"},{"city":"Šenčur","country":"Slovenia","lat":"46.2456","lng":"14.4197"},{"city":"Ibanda","country":"Uganda","lat":"-0.1539","lng":"30.5319"},{"city":"Aasiaat","country":"Greenland","lat":"68.7167","lng":"-52.8667"},{"city":"Mirna","country":"Slovenia","lat":"45.9553","lng":"15.0619"},{"city":"Rače","country":"Slovenia","lat":"46.4519","lng":"15.6814"},{"city":"Lelystad","country":"Netherlands","lat":"52.5176","lng":"5.4740"},{"city":"Črnomelj","country":"Slovenia","lat":"45.5711","lng":"15.1889"},{"city":"Wote","country":"Kenya","lat":"-1.7808","lng":"37.6288"},{"city":"Ferizaj","country":"Kosovo","lat":"42.3706","lng":"21.1553"},{"city":"Mwatate","country":"Kenya","lat":"-3.5050","lng":"38.3772"},{"city":"Vitanje","country":"Slovenia","lat":"46.3817","lng":"15.2958"},{"city":"Sremski Karlovci","country":"Serbia","lat":"45.2021","lng":"19.9325"},{"city":"Doljevac","country":"Serbia","lat":"43.1968","lng":"21.8334"},{"city":"Rukungiri","country":"Uganda","lat":"-0.8411","lng":"29.9419"},{"city":"Għajnsielem","country":"Malta","lat":"36.0264","lng":"14.2850"},{"city":"Lifford","country":"Ireland","lat":"54.8319","lng":"-7.4836"},{"city":"Lewes","country":"United Kingdom","lat":"50.8667","lng":"-0.0167"},{"city":"Isangel","country":"Vanuatu","lat":"-19.5417","lng":"169.2817"},{"city":"Koprivnica","country":"Croatia","lat":"46.1628","lng":"16.8275"},{"city":"Toftir","country":"Faroe Islands","lat":"62.0978","lng":"-6.7369"},{"city":"Maidenhead","country":"United Kingdom","lat":"51.5167","lng":"-0.7000"},{"city":"Gombe","country":"Uganda","lat":"0.1818","lng":"32.1158"},{"city":"Kanjiža","country":"Serbia","lat":"46.0635","lng":"20.0504"},{"city":"Šentjernej","country":"Slovenia","lat":"45.8400","lng":"15.3361"},{"city":"Palé","country":"Equatorial Guinea","lat":"-1.4014","lng":"5.6325"},{"city":"Santo Domingo de los Colorados","country":"Ecuador","lat":"-0.2530","lng":"-79.1754"},{"city":"Khōst","country":"Afghanistan","lat":"33.3395","lng":"69.9204"},{"city":"Kyenjojo","country":"Uganda","lat":"0.6328","lng":"30.6214"},{"city":"Chicksands","country":"United Kingdom","lat":"52.0333","lng":"-0.3667"},{"city":"‘Ajlūn","country":"Jordan","lat":"32.3333","lng":"35.7528"},{"city":"Velika Plana","country":"Serbia","lat":"44.3323","lng":"21.0751"},{"city":"Az̧ Z̧a‘āyin","country":"Qatar","lat":"25.5774","lng":"51.4831"},{"city":"Qala","country":"Malta","lat":"36.0361","lng":"14.3094"},{"city":"Prizren","country":"Kosovo","lat":"42.2139","lng":"20.7397"},{"city":"Al Jabīn","country":"Yemen","lat":"14.7040","lng":"43.5990"},{"city":"Montegiardino","country":"San Marino","lat":"43.9092","lng":"12.4833"},{"city":"Mitoma","country":"Uganda","lat":"-0.6842","lng":"30.0700"},{"city":"Ebbw Vale","country":"United Kingdom","lat":"51.7833","lng":"-3.2000"},{"city":"Nagykanizsa","country":"Hungary","lat":"46.4561","lng":"16.9883"},{"city":"Kalungu","country":"Uganda","lat":"-0.1667","lng":"31.7569"},{"city":"Brvenica","country":"Macedonia","lat":"41.9672","lng":"20.9808"},{"city":"Svilajnac","country":"Serbia","lat":"44.2383","lng":"21.1970"},{"city":"Ainaro","country":"Timor-Leste","lat":"-8.9969","lng":"125.5050"},{"city":"Vukovar","country":"Croatia","lat":"45.3433","lng":"18.9997"},{"city":"Aḑ Ḑāli‘","country":"Yemen","lat":"13.6957","lng":"44.7314"},{"city":"Santa Luċija","country":"Malta","lat":"36.0431","lng":"14.2172"},{"city":"Slough","country":"United Kingdom","lat":"51.5000","lng":"-0.5833"},{"city":"Majšperk","country":"Slovenia","lat":"46.3517","lng":"15.7336"},{"city":"Southport","country":"United Kingdom","lat":"53.6667","lng":"-3.0000"},{"city":"Bukomansimbi","country":"Uganda","lat":"-0.1578","lng":"31.6042"},{"city":"Svrljig","country":"Serbia","lat":"43.4129","lng":"22.1252"},{"city":"Horjul","country":"Slovenia","lat":"46.0236","lng":"14.2992"},{"city":"Postojna","country":"Slovenia","lat":"45.7769","lng":"14.2167"},{"city":"Luče","country":"Slovenia","lat":"46.3561","lng":"14.7467"},{"city":"Spodnja Hajdina","country":"Slovenia","lat":"46.4089","lng":"15.8469"},{"city":"Nelspruit","country":"South Africa","lat":"-25.4745","lng":"30.9703"},{"city":"Šid","country":"Serbia","lat":"45.1276","lng":"19.2267"},{"city":"Negotin","country":"Serbia","lat":"44.2264","lng":"22.5308"},{"city":"Grimsby","country":"United Kingdom","lat":"53.5333","lng":"-0.0500"},{"city":"Kajiado","country":"Kenya","lat":"-1.8524","lng":"36.7768"},{"city":"Telford","country":"United Kingdom","lat":"52.6333","lng":"-2.5000"},